[{"id": "NcgdskgqNMrpM4K2nkWTIw", "alias": "extra-special-delivery-north-hollywood-16", "name": "Extra Special Delivery", "image_url": "https://s3-media1.fl.yelpcdn.com/bphoto/GPZ7g9247Ckdvmr7Atki1g/o.jpg", "is_closed": false, "url": "https://www.yelp.com/biz/extra-special-delivery-north-hollywood-16?adjust_creative=sZ3yryoyE3Dcs3GsAvlcFA&utm_campaign=yelp_api_v3&utm_medium=api_v3_business_search&utm_source=sZ3yryoyE3Dcs3GsAvlcFA", "review_count": 68, "categories": [{"alias": "cannabisdispensaries", "title": "Cannabis Dispensaries"}], "rating": 5.0, "coordinates": {"latitude": 34.1667203, "longitude": -118.3751849}, "transactions": [], "price": "$", "location": {"address1": "5250 Lankershim", "address2": null, "address3": "", "city": "North Hollywood", "zip_code": "91601", "country": "US", "state": "CA", "display_address": ["5250 Lankershim", "North Hollywood, CA 91601"]}, "phone": "+18886549872", "display_phone": "(888) 654-9872", "distance": 12696.088764539712}, {"id": "Xuk1JA_CUuIVUGQKh82LxQ", "alias": "ganjarunner-los-angeles-2", "name": "Ganjarunner", "image_url": "https://s3-media3.fl.yelpcdn.com/bphoto/8OOUFldjqldmi1nsfCZGEA/o.jpg", "is_closed": false, "url": "https://www.yelp.com/biz/ganjarunner-los-angeles-2?adjust_creative=sZ3yryoyE3Dcs3GsAvlcFA&utm_campaign=yelp_api_v3&utm_medium=api_v3_business_search&utm_source=sZ3yryoyE3Dcs3GsAvlcFA", "review_count": 51, "categories": [{"alias": "cannabis_clinics", "title": "Cannabis Clinics"}, {"alias": "cannabisdispensaries", "title": "Cannabis Dispensaries"}], "rating": 5.0, "coordinates": {"latitude": 34.10161, "longitude": -118.30206}, "transactions": [], "location": {"address1": "", "address2": "", "address3": "", "city": "Los Angeles", "zip_code": "90027", "country": "US", "state": "CA", "display_address": ["Los Angeles, CA 90027"]}, "phone": "+18555542652", "display_phone": "(855) 554-2652", "distance": 7193.980371228938}, {"id": "ZpTitJcmD5345QVlVtBc3Q", "alias": "the-higher-path-sherman-oaks-9", "name": "The Higher Path", "image_url": "https://s3-media4.fl.yelpcdn.com/bphoto/tMLtX4nMJi4slPbF0Pf2Zg/o.jpg", "is_closed": false, "url": "https://www.yelp.com/biz/the-higher-path-sherman-oaks-9?adjust_creative=sZ3yryoyE3Dcs3GsAvlcFA&utm_campaign=yelp_api_v3&utm_medium=api_v3_business_search&utm_source=sZ3yryoyE3Dcs3GsAvlcFA", "review_count": 149, "categories": [{"alias": "cannabisdispensaries", "title": "Cannabis Dispensaries"}, {"alias": "cannabiscollective", "title": "Cannabis Collective"}], "rating": 4.5, "coordinates": {"latitude": 34.1493390052598, "longitude": -118.439874686508}, "transactions": [], "price": "$$", "location": {"address1": "14080 Ventura Blvd", "address2": "", "address3": "", "city": "Sherman Oaks", "zip_code": "91423", "country": "US", "state": "CA", "display_address": ["14080 Ventura Blvd", "Sherman Oaks, CA 91423"]}, "phone": "+18183851224", "display_phone": "(818) 385-1224", "distance": 14636.50593655594}, {"id": "aAagpdwqDYNfVtlH39Csbg", "alias": "kushfly-los-angeles-2", "name": "Kushfly", "image_url": "https://s3-media1.fl.yelpcdn.com/bphoto/7LaiBUBA_t2w2irxevaunQ/o.jpg", "is_closed": false, "url": "https://www.yelp.com/biz/kushfly-los-angeles-2?adjust_creative=sZ3yryoyE3Dcs3GsAvlcFA&utm_campaign=yelp_api_v3&utm_medium=api_v3_business_search&utm_source=sZ3yryoyE3Dcs3GsAvlcFA", "review_count": 147, "categories": [{"alias": "cannabis_clinics", "title": "Cannabis Clinics"}, {"alias": "cannabisdispensaries", "title": "Cannabis Dispensaries"}], "rating": 4.0, "coordinates": {"latitude": 34.1276, "longitude": -118.34669}, "transactions": [], "price": "$$", "location": {"address1": "3151 Cahuenga Blvd W", "address2": null, "address3": "", "city": "Los Angeles", "zip_code": "90068", "country": "US", "state": "CA", "display_address": ["3151 Cahuenga Blvd W", "Los Angeles, CA 90068"]}, "phone": "+18555710420", "display_phone": "(855) 571-0420", "distance": 4220.282505145618}, {"id": "bJWklpne8eNA9pLpacsd0A", "alias": "medmen-west-hollywood-west-hollywood-4", "name": "MedMen West Hollywood", "image_url": "https://s3-media4.fl.yelpcdn.com/bphoto/XBpYijPLA7c29y8cCEqt4g/o.jpg", "is_closed": false, "url": "https://www.yelp.com/biz/medmen-west-hollywood-west-hollywood-4?adjust_creative=sZ3yryoyE3Dcs3GsAvlcFA&utm_campaign=yelp_api_v3&utm_medium=api_v3_business_search&utm_source=sZ3yryoyE3Dcs3GsAvlcFA", "review_count": 323, "categories": [{"alias": "cannabisdispensaries", "title": "Cannabis Dispensaries"}], "rating": 4.0, "coordinates": {"latitude": 34.0905911417357, "longitude": -118.367290442404}, "transactions": [], "price": "$$", "location": {"address1": "8208 Santa Monica Blvd", "address2": "", "address3": "", "city": "West Hollywood", "zip_code": "90046", "country": "US", "state": "CA", "display_address": ["8208 Santa Monica Blvd", "West Hollywood, CA 90046"]}, "phone": "+13238487981", "display_phone": "(323) 848-7981", "distance": 5317.7785142899365}, {"id": "QhnDjuYrldBQZdsDocN20g", "alias": "green-earth-collective-los-angeles-6", "name": "Green Earth Collective", "image_url": "https://s3-media2.fl.yelpcdn.com/bphoto/cSNSEz-Jd5z2kN-x_MYsGg/o.jpg", "is_closed": false, "url": "https://www.yelp.com/biz/green-earth-collective-los-angeles-6?adjust_creative=sZ3yryoyE3Dcs3GsAvlcFA&utm_campaign=yelp_api_v3&utm_medium=api_v3_business_search&utm_source=sZ3yryoyE3Dcs3GsAvlcFA", "review_count": 85, "categories": [{"alias": "cannabisdispensaries", "title": "Cannabis Dispensaries"}, {"alias": "cannabiscollective", "title": "Cannabis Collective"}], "rating": 4.5, "coordinates": {"latitude": 34.12247, "longitude": -118.21067}, "transactions": [], "price": "$$", "location": {"address1": "4801 York Blvd", "address2": "", "address3": null, "city": "Los Angeles", "zip_code": "90042", "country": "US", "state": "CA", "display_address": ["4801 York Blvd", "Los Angeles, CA 90042"]}, "phone": "+13233490949", "display_phone": "(323) 349-0949", "distance": 12235.755168224698}, {"id": "_PVsgnMe_ut8BcQSVhAVgw", "alias": "herb-los-angeles-3", "name": "HERB", "image_url": "https://s3-media3.fl.yelpcdn.com/bphoto/HSw89Daf0Tmxf7aUAXRC6g/o.jpg", "is_closed": false, "url": "https://www.yelp.com/biz/herb-los-angeles-3?adjust_creative=sZ3yryoyE3Dcs3GsAvlcFA&utm_campaign=yelp_api_v3&utm_medium=api_v3_business_search&utm_source=sZ3yryoyE3Dcs3GsAvlcFA", "review_count": 58, "categories": [{"alias": "cannabis_clinics", "title": "Cannabis Clinics"}, {"alias": "cannabisdispensaries", "title": "Cannabis Dispensaries"}], "rating": 4.5, "coordinates": {"latitude": 34.0434989929199, "longitude": -118.250205993652}, "transactions": [], "price": "$$", "location": {"address1": "", "address2": null, "address3": "", "city": "Los Angeles", "zip_code": "90014", "country": "US", "state": "CA", "display_address": ["Los Angeles, CA 90014"]}, "phone": "+18444372213", "display_phone": "(844) 437-2213", "distance": 6707.647988501463}, {"id": "KeW8lAw6C1m6LkYwTOCs9g", "alias": "organic-kind-los-angeles-2", "name": "Organic Kind", "image_url": "https://s3-media1.fl.yelpcdn.com/bphoto/wNeC_zmwz39tED5xWhen5w/o.jpg", "is_closed": false, "url": "https://www.yelp.com/biz/organic-kind-los-angeles-2?adjust_creative=sZ3yryoyE3Dcs3GsAvlcFA&utm_campaign=yelp_api_v3&utm_medium=api_v3_business_search&utm_source=sZ3yryoyE3Dcs3GsAvlcFA", "review_count": 37, "categories": [{"alias": "cannabisdispensaries", "title": "Cannabis Dispensaries"}], "rating": 5.0, "coordinates": {"latitude": 34.075957, "longitude": -118.264026}, "transactions": [], "price": "$$$", "location": {"address1": "Delivery Only", "address2": null, "address3": "", "city": "Los Angeles", "zip_code": "90026", "country": "US", "state": "CA", "display_address": ["Delivery Only", "Los Angeles, CA 90026"]}, "phone": "+13235740248", "display_phone": "(323) 574-0248", "distance": 5519.207338445617}, {"id": "-4K0Nzu_5w8E-uDv0aYIPQ", "alias": "medmen-downtown-dtla-los-angeles", "name": "MedMen Downtown - DTLA", "image_url": "https://s3-media4.fl.yelpcdn.com/bphoto/riiJqCM9mXn3IbKkHzQxqw/o.jpg", "is_closed": false, "url": "https://www.yelp.com/biz/medmen-downtown-dtla-los-angeles?adjust_creative=sZ3yryoyE3Dcs3GsAvlcFA&utm_campaign=yelp_api_v3&utm_medium=api_v3_business_search&utm_source=sZ3yryoyE3Dcs3GsAvlcFA", "review_count": 127, "categories": [{"alias": "cannabisdispensaries", "title": "Cannabis Dispensaries"}], "rating": 4.0, "coordinates": {"latitude": 34.0446, "longitude": -118.25444}, "transactions": [], "price": "$$", "location": {"address1": "735 S Broadway", "address2": "", "address3": null, "city": "Los Angeles", "zip_code": "90014", "country": "US", "state": "CA", "display_address": ["735 S Broadway", "Los Angeles, CA 90014"]}, "phone": "+12139082244", "display_phone": "(213) 908-2244", "distance": 6449.902996630715}, {"id": "xzqwc83ScbbWpFzwGvTZOA", "alias": "medmen-abbot-kinney-los-angeles-3", "name": "MedMen Abbot Kinney", "image_url": "https://s3-media4.fl.yelpcdn.com/bphoto/uPS-Wu0Pfq_7umWUwLDfjg/o.jpg", "is_closed": false, "url": "https://www.yelp.com/biz/medmen-abbot-kinney-los-angeles-3?adjust_creative=sZ3yryoyE3Dcs3GsAvlcFA&utm_campaign=yelp_api_v3&utm_medium=api_v3_business_search&utm_source=sZ3yryoyE3Dcs3GsAvlcFA", "review_count": 96, "categories": [{"alias": "cannabisdispensaries", "title": "Cannabis Dispensaries"}], "rating": 4.5, "coordinates": {"latitude": 33.99088, "longitude": -118.46783}, "transactions": [], "price": "$", "location": {"address1": "1310 Abbot Kinney Blvd", "address2": null, "address3": "", "city": "Los Angeles", "zip_code": "90291", "country": "US", "state": "CA", "display_address": ["1310 Abbot Kinney Blvd", "Los Angeles, CA 90291"]}, "phone": "+14243307232", "display_phone": "(424) 330-7232", "distance": 15620.155952213086}, {"id": "MBdtzD8eCUIgOdwwF89xdA", "alias": "mecca-natural-medicine-los-angeles", "name": "Mecca Natural Medicine", "image_url": "https://s3-media3.fl.yelpcdn.com/bphoto/AoH4-BE0mrpVevds1NrfhA/o.jpg", "is_closed": false, "url": "https://www.yelp.com/biz/mecca-natural-medicine-los-angeles?adjust_creative=sZ3yryoyE3Dcs3GsAvlcFA&utm_campaign=yelp_api_v3&utm_medium=api_v3_business_search&utm_source=sZ3yryoyE3Dcs3GsAvlcFA", "review_count": 117, "categories": [{"alias": "cannabisdispensaries", "title": "Cannabis Dispensaries"}], "rating": 4.0, "coordinates": {"latitude": 34.03226, "longitude": -118.35938}, "transactions": [], "price": "$", "location": {"address1": null, "address2": "", "address3": "", "city": "Los Angeles", "zip_code": "90016", "country": "US", "state": "CA", "display_address": ["Los Angeles, CA 90016"]}, "phone": "+13239370299", "display_phone": "(323) 937-0299", "distance": 4905.761901632127}, {"id": "OJkaRKxv0x5uZNJ-FXX8aw", "alias": "pot-valet-santa-monica-5", "name": "Pot Valet", "image_url": "https://s3-media1.fl.yelpcdn.com/bphoto/PmxsDK-Jb19IW4SzFLnqag/o.jpg", "is_closed": false, "url": "https://www.yelp.com/biz/pot-valet-santa-monica-5?adjust_creative=sZ3yryoyE3Dcs3GsAvlcFA&utm_campaign=yelp_api_v3&utm_medium=api_v3_business_search&utm_source=sZ3yryoyE3Dcs3GsAvlcFA", "review_count": 58, "categories": [{"alias": "cannabis_clinics", "title": "Cannabis Clinics"}, {"alias": "cannabisdispensaries", "title": "Cannabis Dispensaries"}, {"alias": "couriers", "title": "Couriers & Delivery Services"}], "rating": 4.5, "coordinates": {"latitude": 34.0053558349609, "longitude": -118.479789733887}, "transactions": [], "price": "$$", "location": {"address1": "", "address2": "", "address3": "", "city": "Santa Monica", "zip_code": "90405", "country": "US", "state": "CA", "display_address": ["Santa Monica, CA 90405"]}, "phone": "+18003571314", "display_phone": "(800) 357-1314", "distance": 14515.944272674924}, {"id": "u1WlK0iGDBd-hJqxDKnO_A", "alias": "top-shelf-delivery-west-hollywood-2", "name": "Top Shelf Delivery", "image_url": "https://s3-media3.fl.yelpcdn.com/bphoto/-6SfzI0c09TzIxKS66sxCQ/o.jpg", "is_closed": false, "url": "https://www.yelp.com/biz/top-shelf-delivery-west-hollywood-2?adjust_creative=sZ3yryoyE3Dcs3GsAvlcFA&utm_campaign=yelp_api_v3&utm_medium=api_v3_business_search&utm_source=sZ3yryoyE3Dcs3GsAvlcFA", "review_count": 54, "categories": [{"alias": "cannabisdispensaries", "title": "Cannabis Dispensaries"}], "rating": 4.5, "coordinates": {"latitude": 34.09289, "longitude": -118.36068}, "transactions": [], "price": "$$$$", "location": {"address1": "", "address2": null, "address3": "", "city": "West Hollywood", "zip_code": "90046", "country": "US", "state": "CA", "display_address": ["West Hollywood, CA 90046"]}, "phone": "+13234948861", "display_phone": "(323) 494-8861", "distance": 7079.830618359903}, {"id": "Dmg_SQwRZoBWt4asYHBuaw", "alias": "firehaus-marijuana-dispensary-los-angeles-2", "name": "FireHaus Marijuana Dispensary", "image_url": "https://s3-media3.fl.yelpcdn.com/bphoto/FaLOSGba5tMbAY051BxUQg/o.jpg", "is_closed": false, "url": "https://www.yelp.com/biz/firehaus-marijuana-dispensary-los-angeles-2?adjust_creative=sZ3yryoyE3Dcs3GsAvlcFA&utm_campaign=yelp_api_v3&utm_medium=api_v3_business_search&utm_source=sZ3yryoyE3Dcs3GsAvlcFA", "review_count": 86, "categories": [{"alias": "cannabisdispensaries", "title": "Cannabis Dispensaries"}], "rating": 4.0, "coordinates": {"latitude": 34.042108, "longitude": -118.4416266}, "transactions": [], "price": "$$", "location": {"address1": "2000 Cotner Ave", "address2": null, "address3": "", "city": "Los Angeles", "zip_code": "90025", "country": "US", "state": "CA", "display_address": ["2000 Cotner Ave", "Los Angeles, CA 90025"]}, "phone": "+13235159333", "display_phone": "(323) 515-9333", "distance": 11287.876237505106}, {"id": "U-PmQYx3vgnE3fZJ8RkNwQ", "alias": "cornerstone-research-collective-los-angeles", "name": "Cornerstone Research Collective", "image_url": "https://s3-media2.fl.yelpcdn.com/bphoto/R87bj8U-DJoKMKZ-el-ueQ/o.jpg", "is_closed": false, "url": "https://www.yelp.com/biz/cornerstone-research-collective-los-angeles?adjust_creative=sZ3yryoyE3Dcs3GsAvlcFA&utm_campaign=yelp_api_v3&utm_medium=api_v3_business_search&utm_source=sZ3yryoyE3Dcs3GsAvlcFA", "review_count": 104, "categories": [{"alias": "cannabis_clinics", "title": "Cannabis Clinics"}, {"alias": "cannabiscollective", "title": "Cannabis Collective"}, {"alias": "cannabisdispensaries", "title": "Cannabis Dispensaries"}], "rating": 4.0, "coordinates": {"latitude": 34.1418972, "longitude": -118.2220956}, "transactions": [], "price": "$$", "location": {"address1": "2551 Colorado Blvd", "address2": "", "address3": "", "city": "Los Angeles", "zip_code": "90041", "country": "US", "state": "CA", "display_address": ["2551 Colorado Blvd", "Los Angeles, CA 90041"]}, "phone": "+13232598933", "display_phone": "(323) 259-8933", "distance": 12802.976466788015}, {"id": "gp2gLY2UOdsoB-TwEMypRw", "alias": "fast-and-friendly-delivery-service-hermosa-beach-4", "name": "Fast & Friendly Delivery Service", "image_url": "https://s3-media4.fl.yelpcdn.com/bphoto/CLxF6O_u7Di4W1dbKCSaUQ/o.jpg", "is_closed": false, "url": "https://www.yelp.com/biz/fast-and-friendly-delivery-service-hermosa-beach-4?adjust_creative=sZ3yryoyE3Dcs3GsAvlcFA&utm_campaign=yelp_api_v3&utm_medium=api_v3_business_search&utm_source=sZ3yryoyE3Dcs3GsAvlcFA", "review_count": 108, "categories": [{"alias": "cannabis_clinics", "title": "Cannabis Clinics"}, {"alias": "cannabisdispensaries", "title": "Cannabis Dispensaries"}], "rating": 4.0, "coordinates": {"latitude": 33.8649142, "longitude": -118.3944767}, "transactions": [], "location": {"address1": "703 Pier Ave", "address2": "Ste B", "address3": "", "city": "Hermosa Beach", "zip_code": "90254", "country": "US", "state": "CA", "display_address": ["703 Pier Ave", "Ste B", "Hermosa Beach, CA 90254"]}, "phone": "+13108707115", "display_phone": "(310) 870-7115", "distance": 22890.142771937833}, {"id": "wY47dPJKXx1YxdjSu4GOsQ", "alias": "universal-collective-los-angeles", "name": "Universal Collective", "image_url": "https://s3-media4.fl.yelpcdn.com/bphoto/YlYfggyEYXMnTdNU7fw0cA/o.jpg", "is_closed": false, "url": "https://www.yelp.com/biz/universal-collective-los-angeles?adjust_creative=sZ3yryoyE3Dcs3GsAvlcFA&utm_campaign=yelp_api_v3&utm_medium=api_v3_business_search&utm_source=sZ3yryoyE3Dcs3GsAvlcFA", "review_count": 42, "categories": [{"alias": "cannabisdispensaries", "title": "Cannabis Dispensaries"}], "rating": 4.5, "coordinates": {"latitude": 34.1343, "longitude": -118.36019}, "transactions": [], "price": "$$", "location": {"address1": "3625 Cahuenga Blvd W", "address2": "", "address3": "", "city": "Los Angeles", "zip_code": "90068", "country": "US", "state": "CA", "display_address": ["3625 Cahuenga Blvd W", "Los Angeles, CA 90068"]}, "phone": "+13238501847", "display_phone": "(323) 850-1847", "distance": 8849.959501250867}, {"id": "oHhcQwmA5vEgEnBHCSJ5Mg", "alias": "sunset-herbal-corner-dispensary-los-angeles", "name": "Sunset Herbal Corner Dispensary", "image_url": "https://s3-media1.fl.yelpcdn.com/bphoto/gUu10g0FLMmGIqF3Msgmvg/o.jpg", "is_closed": false, "url": "https://www.yelp.com/biz/sunset-herbal-corner-dispensary-los-angeles?adjust_creative=sZ3yryoyE3Dcs3GsAvlcFA&utm_campaign=yelp_api_v3&utm_medium=api_v3_business_search&utm_source=sZ3yryoyE3Dcs3GsAvlcFA", "review_count": 72, "categories": [{"alias": "cannabisdispensaries", "title": "Cannabis Dispensaries"}], "rating": 4.0, "coordinates": {"latitude": 34.172473, "longitude": -118.382416}, "transactions": [], "location": {"address1": "11503 Burbank Blvd", "address2": null, "address3": "", "city": "Los Angeles", "zip_code": "91601", "country": "US", "state": "CA", "display_address": ["11503 Burbank Blvd", "Los Angeles, CA 91601"]}, "phone": "+18187622282", "display_phone": "(818) 762-2282", "distance": 13554.455518474753}, {"id": "Lw1YeZef7X4EhSIpbM6NyQ", "alias": "green-angel-sherman-oaks", "name": "Green Angel", "image_url": "https://s3-media2.fl.yelpcdn.com/bphoto/x9Ip7yltCMh0-f7--qOCpQ/o.jpg", "is_closed": false, "url": "https://www.yelp.com/biz/green-angel-sherman-oaks?adjust_creative=sZ3yryoyE3Dcs3GsAvlcFA&utm_campaign=yelp_api_v3&utm_medium=api_v3_business_search&utm_source=sZ3yryoyE3Dcs3GsAvlcFA", "review_count": 52, "categories": [{"alias": "cannabisdispensaries", "title": "Cannabis Dispensaries"}], "rating": 4.5, "coordinates": {"latitude": 34.1488079, "longitude": -118.4373782}, "transactions": [], "location": {"address1": "14000 Ventura Blvd", "address2": null, "address3": "", "city": "Sherman Oaks", "zip_code": "91423", "country": "US", "state": "CA", "display_address": ["14000 Ventura Blvd", "Sherman Oaks, CA 91423"]}, "phone": "+18186460221", "display_phone": "(818) 646-0221", "distance": 14426.24826635052}, {"id": "19OKybHIpT9UatfrOMfq_g", "alias": "rose-collective-venice", "name": "Rose Collective", "image_url": "https://s3-media2.fl.yelpcdn.com/bphoto/ZB4d-U2Kn513n2zjnUmLgA/o.jpg", "is_closed": false, "url": "https://www.yelp.com/biz/rose-collective-venice?adjust_creative=sZ3yryoyE3Dcs3GsAvlcFA&utm_campaign=yelp_api_v3&utm_medium=api_v3_business_search&utm_source=sZ3yryoyE3Dcs3GsAvlcFA", "review_count": 83, "categories": [{"alias": "cannabis_clinics", "title": "Cannabis Clinics"}, {"alias": "cannabisdispensaries", "title": "Cannabis Dispensaries"}], "rating": 4.0, "coordinates": {"latitude": 33.9979274, "longitude": -118.474851}, "transactions": [], "location": {"address1": "411 Rose Ave", "address2": null, "address3": "", "city": "Venice", "zip_code": "90291", "country": "US", "state": "CA", "display_address": ["411 Rose Ave", "Venice, CA 90291"]}, "phone": "+13103923890", "display_phone": "(310) 392-3890", "distance": 15815.357203973888}, {"id": "wLViN-vumshh6CEchAlsEQ", "alias": "herbarium-hollywood", "name": "Herbarium", "image_url": "https://s3-media2.fl.yelpcdn.com/bphoto/JbrV1OWDlWhe4qX8mG_FVg/o.jpg", "is_closed": false, "url": "https://www.yelp.com/biz/herbarium-hollywood?adjust_creative=sZ3yryoyE3Dcs3GsAvlcFA&utm_campaign=yelp_api_v3&utm_medium=api_v3_business_search&utm_source=sZ3yryoyE3Dcs3GsAvlcFA", "review_count": 62, "categories": [{"alias": "cannabisdispensaries", "title": "Cannabis Dispensaries"}, {"alias": "herbalshops", "title": "Herbal Shops"}, {"alias": "painmanagement", "title": "Pain Management"}], "rating": 4.5, "coordinates": {"latitude": 34.08853, "longitude": -118.3446}, "transactions": [], "price": "$$", "location": {"address1": "979 N La Brea Ave", "address2": null, "address3": "", "city": "Hollywood", "zip_code": "90038", "country": "US", "state": "CA", "display_address": ["979 N La Brea Ave", "Hollywood, CA 90038"]}, "phone": "+13234472037", "display_phone": "(323) 447-2037", "distance": 3683.5852522063806}, {"id": "8YBWDDVzqWllyKfhcxG-xA", "alias": "los-angeles-patients-and-caregivers-group-west-hollywood", "name": "Los Angeles Patients & Caregivers Group", "image_url": "https://s3-media1.fl.yelpcdn.com/bphoto/EGsuaPEAY1snTheiPd1dqA/o.jpg", "is_closed": false, "url": "https://www.yelp.com/biz/los-angeles-patients-and-caregivers-group-west-hollywood?adjust_creative=sZ3yryoyE3Dcs3GsAvlcFA&utm_campaign=yelp_api_v3&utm_medium=api_v3_business_search&utm_source=sZ3yryoyE3Dcs3GsAvlcFA", "review_count": 86, "categories": [{"alias": "cannabisdispensaries", "title": "Cannabis Dispensaries"}], "rating": 4.5, "coordinates": {"latitude": 34.0907688800547, "longitude": -118.346886039038}, "transactions": [], "price": "$$", "location": {"address1": "7213 Santa Monica Blvd", "address2": "", "address3": "", "city": "West Hollywood", "zip_code": "90046", "country": "US", "state": "CA", "display_address": ["7213 Santa Monica Blvd", "West Hollywood, CA 90046"]}, "phone": "+13238826033", "display_phone": "(323) 882-6033", "distance": 4002.367578716936}, {"id": "qw07NK204oP9T2TZ2q1u7A", "alias": "the-healing-touch-encino", "name": "The Healing Touch", "image_url": "https://s3-media4.fl.yelpcdn.com/bphoto/wdrdswWpvJhy-VrwAWa-NQ/o.jpg", "is_closed": false, "url": "https://www.yelp.com/biz/the-healing-touch-encino?adjust_creative=sZ3yryoyE3Dcs3GsAvlcFA&utm_campaign=yelp_api_v3&utm_medium=api_v3_business_search&utm_source=sZ3yryoyE3Dcs3GsAvlcFA", "review_count": 63, "categories": [{"alias": "cannabis_clinics", "title": "Cannabis Clinics"}, {"alias": "cannabisdispensaries", "title": "Cannabis Dispensaries"}], "rating": 4.5, "coordinates": {"latitude": 34.16492, "longitude": -118.52482}, "transactions": [], "location": {"address1": "18013 Ventura Blvd", "address2": "Unit A", "address3": null, "city": "Encino", "zip_code": "91316", "country": "US", "state": "CA", "display_address": ["18013 Ventura Blvd", "Unit A", "Encino, CA 91316"]}, "phone": "+18188811462", "display_phone": "(818) 881-1462", "distance": 21972.68553341631}, {"id": "BPJkD6Ud4E95oI0bSRb0rA", "alias": "green-door-west-delivery-los-angeles", "name": "Green Door West Delivery", "image_url": "https://s3-media4.fl.yelpcdn.com/bphoto/PRnBkdia_Wa2K1C9d1gzvA/o.jpg", "is_closed": false, "url": "https://www.yelp.com/biz/green-door-west-delivery-los-angeles?adjust_creative=sZ3yryoyE3Dcs3GsAvlcFA&utm_campaign=yelp_api_v3&utm_medium=api_v3_business_search&utm_source=sZ3yryoyE3Dcs3GsAvlcFA", "review_count": 38, "categories": [{"alias": "cannabis_clinics", "title": "Cannabis Clinics"}, {"alias": "cannabisdispensaries", "title": "Cannabis Dispensaries"}], "rating": 4.5, "coordinates": {"latitude": 34.03313, "longitude": -118.43872}, "transactions": [], "price": "$$", "location": {"address1": null, "address2": null, "address3": "", "city": "Los Angeles", "zip_code": "90064", "country": "US", "state": "CA", "display_address": ["Los Angeles, CA 90064"]}, "phone": "+14242725232", "display_phone": "(424) 272-5232", "distance": 9627.652417125457}, {"id": "8qehe-l_xdjQ1ZQOrpJAqw", "alias": "alternative-herbal-health-services-west-hollywood", "name": "Alternative Herbal Health Services", "image_url": "https://s3-media2.fl.yelpcdn.com/bphoto/kb6TKhXTRPjgcGZ_FPOTNQ/o.jpg", "is_closed": false, "url": "https://www.yelp.com/biz/alternative-herbal-health-services-west-hollywood?adjust_creative=sZ3yryoyE3Dcs3GsAvlcFA&utm_campaign=yelp_api_v3&utm_medium=api_v3_business_search&utm_source=sZ3yryoyE3Dcs3GsAvlcFA", "review_count": 37, "categories": [{"alias": "cannabisdispensaries", "title": "Cannabis Dispensaries"}], "rating": 4.5, "coordinates": {"latitude": 34.09056, "longitude": -118.36021}, "transactions": [], "price": "$$", "location": {"address1": "7828 Santa Monica Blvd", "address2": "", "address3": "", "city": "West Hollywood", "zip_code": "90046", "country": "US", "state": "CA", "display_address": ["7828 Santa Monica Blvd", "West Hollywood, CA 90046"]}, "phone": "+13236548792", "display_phone": "(323) 654-8792", "distance": 4815.9211805658415}, {"id": "Ff5xQfw3hgK46N8bp1lVKg", "alias": "exhalence-la-los-angeles", "name": "Exhalence LA", "image_url": "https://s3-media2.fl.yelpcdn.com/bphoto/5ipzN879IQ62RUodzyUKag/o.jpg", "is_closed": false, "url": "https://www.yelp.com/biz/exhalence-la-los-angeles?adjust_creative=sZ3yryoyE3Dcs3GsAvlcFA&utm_campaign=yelp_api_v3&utm_medium=api_v3_business_search&utm_source=sZ3yryoyE3Dcs3GsAvlcFA", "review_count": 33, "categories": [{"alias": "cannabisdispensaries", "title": "Cannabis Dispensaries"}], "rating": 4.5, "coordinates": {"latitude": 34.22189, "longitude": -118.359563}, "transactions": [], "price": "$$$$", "location": {"address1": "10467 Roscoe Blvd", "address2": "", "address3": null, "city": "Los Angeles", "zip_code": "91352", "country": "US", "state": "CA", "display_address": ["10467 Roscoe Blvd", "Los Angeles, CA 91352"]}, "phone": "+18183949094", "display_phone": "(818) 394-9094", "distance": 18167.646234395503}, {"id": "ZDQQEUaol-3C_z3mNPsG2Q", "alias": "the-buddha-company-los-angeles", "name": "The Buddha Company", "image_url": "https://s3-media2.fl.yelpcdn.com/bphoto/Nb5VLmXXIOoZUBIeULf17w/o.jpg", "is_closed": false, "url": "https://www.yelp.com/biz/the-buddha-company-los-angeles?adjust_creative=sZ3yryoyE3Dcs3GsAvlcFA&utm_campaign=yelp_api_v3&utm_medium=api_v3_business_search&utm_source=sZ3yryoyE3Dcs3GsAvlcFA", "review_count": 26, "categories": [{"alias": "cannabis_clinics", "title": "Cannabis Clinics"}, {"alias": "cannabisdispensaries", "title": "Cannabis Dispensaries"}], "rating": 4.5, "coordinates": {"latitude": 34.0302999, "longitude": -118.23084}, "transactions": [], "location": {"address1": "2038 Sacramento St", "address2": null, "address3": "", "city": "Los Angeles", "zip_code": "90021", "country": "US", "state": "CA", "display_address": ["2038 Sacramento St", "Los Angeles, CA 90021"]}, "phone": "+12136283144", "display_phone": "(213) 628-3144", "distance": 9055.844824097045}, {"id": "dg4aVcZ-Y8gIRsiR13jSIg", "alias": "western-caregivers-california-cannabis-melrose-los-angeles", "name": "Western Caregivers / California Cannabis Melrose", "image_url": "https://s3-media1.fl.yelpcdn.com/bphoto/35TZL_HRcL8i0xXUCM6tXQ/o.jpg", "is_closed": false, "url": "https://www.yelp.com/biz/western-caregivers-california-cannabis-melrose-los-angeles?adjust_creative=sZ3yryoyE3Dcs3GsAvlcFA&utm_campaign=yelp_api_v3&utm_medium=api_v3_business_search&utm_source=sZ3yryoyE3Dcs3GsAvlcFA", "review_count": 31, "categories": [{"alias": "cannabisdispensaries", "title": "Cannabis Dispensaries"}, {"alias": "cannabis_clinics", "title": "Cannabis Clinics"}, {"alias": "cannabiscollective", "title": "Cannabis Collective"}], "rating": 4.5, "coordinates": {"latitude": 34.08318, "longitude": -118.30991}, "transactions": [], "price": "$$", "location": {"address1": "654 N Manhattan Pl", "address2": null, "address3": "", "city": "Los Angeles", "zip_code": "90004", "country": "US", "state": "CA", "display_address": ["654 N Manhattan Pl", "Los Angeles, CA 90004"]}, "phone": "+13239792568", "display_phone": "(323) 979-2568", "distance": 2622.2309322346277}, {"id": "GRjNX20_BKtOsYsHAW6eWw", "alias": "pineapple-express-delivery-manhattan-beach", "name": "Pineapple Express Delivery", "image_url": "https://s3-media4.fl.yelpcdn.com/bphoto/6KtUSmunUqkpMpX_uf8IPA/o.jpg", "is_closed": false, "url": "https://www.yelp.com/biz/pineapple-express-delivery-manhattan-beach?adjust_creative=sZ3yryoyE3Dcs3GsAvlcFA&utm_campaign=yelp_api_v3&utm_medium=api_v3_business_search&utm_source=sZ3yryoyE3Dcs3GsAvlcFA", "review_count": 17, "categories": [{"alias": "cannabisdispensaries", "title": "Cannabis Dispensaries"}], "rating": 5.0, "coordinates": {"latitude": 33.88611, "longitude": -118.40531}, "transactions": [], "price": "$$", "location": {"address1": "", "address2": "", "address3": "", "city": "Manhattan Beach", "zip_code": "90266", "country": "US", "state": "CA", "display_address": ["Manhattan Beach, CA 90266"]}, "phone": "+13102940217", "display_phone": "(310) 294-0217", "distance": 21327.83632030378}, {"id": "OAfaGZAd1PAhtGXzVwBKjg", "alias": "luvbrite-delivery-santa-monica", "name": "Luvbrite Delivery", "image_url": "https://s3-media4.fl.yelpcdn.com/bphoto/M_docWImzXY4GZ2nVcmLIA/o.jpg", "is_closed": false, "url": "https://www.yelp.com/biz/luvbrite-delivery-santa-monica?adjust_creative=sZ3yryoyE3Dcs3GsAvlcFA&utm_campaign=yelp_api_v3&utm_medium=api_v3_business_search&utm_source=sZ3yryoyE3Dcs3GsAvlcFA", "review_count": 23, "categories": [{"alias": "cannabisdispensaries", "title": "Cannabis Dispensaries"}, {"alias": "cannabiscollective", "title": "Cannabis Collective"}], "rating": 4.5, "coordinates": {"latitude": 34.01158, "longitude": -118.49227}, "transactions": [], "location": {"address1": "", "address2": "", "address3": "", "city": "Santa Monica", "zip_code": "90401", "country": "US", "state": "CA", "display_address": ["Santa Monica, CA 90401"]}, "phone": "+14242701560", "display_phone": "(424) 270-1560", "distance": 16912.20724073069}, {"id": "7CBGsZxPoOdmTS3zRhQR3w", "alias": "nugg-los-angeles-3", "name": "Nugg", "image_url": "https://s3-media1.fl.yelpcdn.com/bphoto/fyEGwMV372d5bSsgw_4zlw/o.jpg", "is_closed": false, "url": "https://www.yelp.com/biz/nugg-los-angeles-3?adjust_creative=sZ3yryoyE3Dcs3GsAvlcFA&utm_campaign=yelp_api_v3&utm_medium=api_v3_business_search&utm_source=sZ3yryoyE3Dcs3GsAvlcFA", "review_count": 99, "categories": [{"alias": "cannabisdispensaries", "title": "Cannabis Dispensaries"}], "rating": 3.5, "coordinates": {"latitude": 34.029109954834, "longitude": -118.283065795898}, "transactions": [], "location": {"address1": "", "address2": "", "address3": "", "city": "Los Angeles", "zip_code": "90007", "country": "US", "state": "CA", "display_address": ["Los Angeles, CA 90007"]}, "phone": "+13235106844", "display_phone": "(323) 510-6844", "distance": 4906.111148449467}, {"id": "dqDSU0D_hy9p93fhv2up1A", "alias": "california-alternative-caregivers-venice-3", "name": "California Alternative Caregivers", "image_url": "https://s3-media4.fl.yelpcdn.com/bphoto/3kgXMYsOXYYznqb_O-9Qdg/o.jpg", "is_closed": false, "url": "https://www.yelp.com/biz/california-alternative-caregivers-venice-3?adjust_creative=sZ3yryoyE3Dcs3GsAvlcFA&utm_campaign=yelp_api_v3&utm_medium=api_v3_business_search&utm_source=sZ3yryoyE3Dcs3GsAvlcFA", "review_count": 31, "categories": [{"alias": "cannabisdispensaries", "title": "Cannabis Dispensaries"}], "rating": 4.5, "coordinates": {"latitude": 34.0022531, "longitude": -118.4691969}, "transactions": [], "location": {"address1": "122 Lincoln Blvd", "address2": "Ste 204", "address3": "", "city": "Venice", "zip_code": "90291", "country": "US", "state": "CA", "display_address": ["122 Lincoln Blvd", "Ste 204", "Venice, CA 90291"]}, "phone": "+14247448507", "display_phone": "(424) 744-8507", "distance": 15135.102795854338}, {"id": "wc5I4zMTqo9vaKM49mwixQ", "alias": "medmen-lax-los-angeles-2", "name": "MedMen LAX", "image_url": "https://s3-media4.fl.yelpcdn.com/bphoto/t4pvlO12oTDRLD3c1FmCxA/o.jpg", "is_closed": false, "url": "https://www.yelp.com/biz/medmen-lax-los-angeles-2?adjust_creative=sZ3yryoyE3Dcs3GsAvlcFA&utm_campaign=yelp_api_v3&utm_medium=api_v3_business_search&utm_source=sZ3yryoyE3Dcs3GsAvlcFA", "review_count": 73, "categories": [{"alias": "cannabisdispensaries", "title": "Cannabis Dispensaries"}], "rating": 3.5, "coordinates": {"latitude": 33.95765, "longitude": -118.39575}, "transactions": [], "price": "$$", "location": {"address1": "8740 S Sepulveda Blvd", "address2": "Ste 105", "address3": "", "city": "Los Angeles", "zip_code": "90045", "country": "US", "state": "CA", "display_address": ["8740 S Sepulveda Blvd", "Ste 105", "Los Angeles, CA 90045"]}, "phone": "+14242908030", "display_phone": "(424) 290-8030", "distance": 13430.814243995977}, {"id": "n0Osrnd1JISjO2uo4iGieg", "alias": "green-valley-collective-los-angeles-4", "name": "Green Valley Collective", "image_url": "https://s3-media2.fl.yelpcdn.com/bphoto/ZUm93FwUsnFfSqQRbCkO_Q/o.jpg", "is_closed": false, "url": "https://www.yelp.com/biz/green-valley-collective-los-angeles-4?adjust_creative=sZ3yryoyE3Dcs3GsAvlcFA&utm_campaign=yelp_api_v3&utm_medium=api_v3_business_search&utm_source=sZ3yryoyE3Dcs3GsAvlcFA", "review_count": 59, "categories": [{"alias": "cannabisdispensaries", "title": "Cannabis Dispensaries"}, {"alias": "cannabis_clinics", "title": "Cannabis Clinics"}, {"alias": "cannabiscollective", "title": "Cannabis Collective"}], "rating": 3.5, "coordinates": {"latitude": 34.16439, "longitude": -118.36737}, "transactions": [], "price": "$$", "location": {"address1": "10842 West Magnolia Blvd", "address2": null, "address3": "", "city": "Los Angeles", "zip_code": "91601", "country": "US", "state": "CA", "display_address": ["10842 West Magnolia Blvd", "Los Angeles, CA 91601"]}, "phone": "+18183222177", "display_phone": "(818) 322-2177", "distance": 12218.550115509304}, {"id": "1aGq-IuXspR7te9rYElipw", "alias": "medmen-beverly-hills-los-angeles-5", "name": "MedMen Beverly Hills", "image_url": "https://s3-media1.fl.yelpcdn.com/bphoto/Gm79P7FXZNMNnuvIMsAcGQ/o.jpg", "is_closed": false, "url": "https://www.yelp.com/biz/medmen-beverly-hills-los-angeles-5?adjust_creative=sZ3yryoyE3Dcs3GsAvlcFA&utm_campaign=yelp_api_v3&utm_medium=api_v3_business_search&utm_source=sZ3yryoyE3Dcs3GsAvlcFA", "review_count": 57, "categories": [{"alias": "cannabisdispensaries", "title": "Cannabis Dispensaries"}], "rating": 3.5, "coordinates": {"latitude": 34.0746620981703, "longitude": -118.383718578289}, "transactions": [], "price": "$$", "location": {"address1": "110 S Robertson Blvd", "address2": "", "address3": null, "city": "Los Angeles", "zip_code": "90048", "country": "US", "state": "CA", "display_address": ["110 S Robertson Blvd", "Los Angeles, CA 90048"]}, "phone": "+13103073478", "display_phone": "(310) 307-3478", "distance": 5923.125887552674}, {"id": "VpgX8y4Zlymqt1iV77ntsg", "alias": "best-buds-la-los-angeles-4", "name": "Best Buds LA", "image_url": "https://s3-media1.fl.yelpcdn.com/bphoto/ZqLsqwdJM0se-tM-icJ77Q/o.jpg", "is_closed": false, "url": "https://www.yelp.com/biz/best-buds-la-los-angeles-4?adjust_creative=sZ3yryoyE3Dcs3GsAvlcFA&utm_campaign=yelp_api_v3&utm_medium=api_v3_business_search&utm_source=sZ3yryoyE3Dcs3GsAvlcFA", "review_count": 27, "categories": [{"alias": "cannabisdispensaries", "title": "Cannabis Dispensaries"}, {"alias": "cannabis_clinics", "title": "Cannabis Clinics"}], "rating": 4.0, "coordinates": {"latitude": 33.9557231, "longitude": -118.4168175}, "transactions": [], "price": "$$", "location": {"address1": null, "address2": null, "address3": null, "city": "Los Angeles", "zip_code": "90045", "country": "US", "state": "CA", "display_address": ["Los Angeles, CA 90045"]}, "phone": "+13109089130", "display_phone": "(310) 908-9130", "distance": 14695.611618801548}, {"id": "DyXuNWApwnM0YzwxihahbQ", "alias": "420-caregiver-sherman-oaks-dispensary-los-angeles", "name": "420 Caregiver Sherman Oaks Dispensary", "image_url": "https://s3-media2.fl.yelpcdn.com/bphoto/I_leHKgljLbqK903pBMVGw/o.jpg", "is_closed": false, "url": "https://www.yelp.com/biz/420-caregiver-sherman-oaks-dispensary-los-angeles?adjust_creative=sZ3yryoyE3Dcs3GsAvlcFA&utm_campaign=yelp_api_v3&utm_medium=api_v3_business_search&utm_source=sZ3yryoyE3Dcs3GsAvlcFA", "review_count": 17, "categories": [{"alias": "cannabisdispensaries", "title": "Cannabis Dispensaries"}, {"alias": "cannabis_clinics", "title": "Cannabis Clinics"}], "rating": 5.0, "coordinates": {"latitude": 34.14896, "longitude": -118.43868}, "transactions": [], "location": {"address1": "14040 Ventura", "address2": null, "address3": "", "city": "Los Angeles", "zip_code": "91423", "country": "US", "state": "CA", "display_address": ["14040 Ventura", "Los Angeles, CA 91423"]}, "phone": "+18182136054", "display_phone": "(818) 213-6054", "distance": 14529.17002973557}, {"id": "HpzkjyiCMwNKJ96gVzSF2w", "alias": "los-angeles-kush-los-angeles", "name": "Los Angeles Kush", "image_url": "https://s3-media3.fl.yelpcdn.com/bphoto/ybeubVciGv_kudBfbiFl4g/o.jpg", "is_closed": false, "url": "https://www.yelp.com/biz/los-angeles-kush-los-angeles?adjust_creative=sZ3yryoyE3Dcs3GsAvlcFA&utm_campaign=yelp_api_v3&utm_medium=api_v3_business_search&utm_source=sZ3yryoyE3Dcs3GsAvlcFA", "review_count": 28, "categories": [{"alias": "cannabisdispensaries", "title": "Cannabis Dispensaries"}], "rating": 4.0, "coordinates": {"latitude": 34.06429, "longitude": -118.27142}, "transactions": [], "price": "$$", "location": {"address1": "182 S Alvarado St", "address2": null, "address3": "", "city": "Los Angeles", "zip_code": "90057", "country": "US", "state": "CA", "display_address": ["182 S Alvarado St", "Los Angeles, CA 90057"]}, "phone": "+12133524108", "display_phone": "(213) 352-4108", "distance": 4608.553244507554}, {"id": "kzvbXxeaRnRteXCv6BFaCA", "alias": "cannary-west-los-angeles", "name": "Cannary West", "image_url": "https://s3-media4.fl.yelpcdn.com/bphoto/CDnz0REEJRNfchsSKH8jtA/o.jpg", "is_closed": false, "url": "https://www.yelp.com/biz/cannary-west-los-angeles?adjust_creative=sZ3yryoyE3Dcs3GsAvlcFA&utm_campaign=yelp_api_v3&utm_medium=api_v3_business_search&utm_source=sZ3yryoyE3Dcs3GsAvlcFA", "review_count": 18, "categories": [{"alias": "cannabisdispensaries", "title": "Cannabis Dispensaries"}], "rating": 4.5, "coordinates": {"latitude": 34.0373, "longitude": -118.4327}, "transactions": [], "location": {"address1": "2435 Military Ave", "address2": null, "address3": "", "city": "Los Angeles", "zip_code": "90064", "country": "US", "state": "CA", "display_address": ["2435 Military Ave", "Los Angeles, CA 90064"]}, "phone": "+14242932479", "display_phone": "(424) 293-2479", "distance": 10606.74699795256}, {"id": "eFUDfDvcH9BLCyotDlG22w", "alias": "treetop-la-los-angeles", "name": "Treetop LA", "image_url": "https://s3-media1.fl.yelpcdn.com/bphoto/QrtgFAVNt6C5_boLe4hJAw/o.jpg", "is_closed": false, "url": "https://www.yelp.com/biz/treetop-la-los-angeles?adjust_creative=sZ3yryoyE3Dcs3GsAvlcFA&utm_campaign=yelp_api_v3&utm_medium=api_v3_business_search&utm_source=sZ3yryoyE3Dcs3GsAvlcFA", "review_count": 23, "categories": [{"alias": "cannabisdispensaries", "title": "Cannabis Dispensaries"}], "rating": 4.0, "coordinates": {"latitude": 34.07543, "longitude": -118.22145}, "transactions": [], "location": {"address1": "138 N San Fernando Rd", "address2": "", "address3": "", "city": "Los Angeles", "zip_code": "90031", "country": "US", "state": "CA", "display_address": ["138 N San Fernando Rd", "Los Angeles, CA 90031"]}, "phone": "+13239404525", "display_phone": "(323) 940-4525", "distance": 9323.267820967303}, {"id": "St27yZiqokMyKa2WDFrUmg", "alias": "tlc-collective-los-angeles", "name": "TLC Collective", "image_url": "https://s3-media4.fl.yelpcdn.com/bphoto/BR1qU-mG72XgNheKQbgwSA/o.jpg", "is_closed": false, "url": "https://www.yelp.com/biz/tlc-collective-los-angeles?adjust_creative=sZ3yryoyE3Dcs3GsAvlcFA&utm_campaign=yelp_api_v3&utm_medium=api_v3_business_search&utm_source=sZ3yryoyE3Dcs3GsAvlcFA", "review_count": 45, "categories": [{"alias": "cannabisdispensaries", "title": "Cannabis Dispensaries"}], "rating": 3.5, "coordinates": {"latitude": 34.0177450381105, "longitude": -118.198729850021}, "transactions": [], "price": "$$$", "location": {"address1": "3650 E Olympic Blvd", "address2": "", "address3": null, "city": "Los Angeles", "zip_code": "90023", "country": "US", "state": "CA", "display_address": ["3650 E Olympic Blvd", "Los Angeles, CA 90023"]}, "phone": "+13232692455", "display_phone": "(323) 269-2455", "distance": 12307.977494784274}, {"id": "zsUPfE9BBstrhRvL9gSrvA", "alias": "apothecary420-sherman-oaks", "name": "Apothecary420", "image_url": "https://s3-media4.fl.yelpcdn.com/bphoto/GW-hXK8SKr6GzK71VR7cDA/o.jpg", "is_closed": false, "url": "https://www.yelp.com/biz/apothecary420-sherman-oaks?adjust_creative=sZ3yryoyE3Dcs3GsAvlcFA&utm_campaign=yelp_api_v3&utm_medium=api_v3_business_search&utm_source=sZ3yryoyE3Dcs3GsAvlcFA", "review_count": 53, "categories": [{"alias": "cannabisdispensaries", "title": "Cannabis Dispensaries"}], "rating": 3.5, "coordinates": {"latitude": 34.15312, "longitude": -118.46892}, "transactions": [], "location": {"address1": "15374 Dickens St", "address2": "", "address3": "", "city": "Sherman Oaks", "zip_code": "91403", "country": "US", "state": "CA", "display_address": ["15374 Dickens St", "Sherman Oaks, CA 91403"]}, "phone": "+18189050420", "display_phone": "(818) 905-0420", "distance": 16960.348343925667}, {"id": "D-Suk4CPkIvqAMA6wtdnDg", "alias": "la-wonderland-marijuana-dispensary-recreational-los-angeles-3", "name": "LA Wonderland Marijuana Dispensary Recreational", "image_url": "https://s3-media3.fl.yelpcdn.com/bphoto/EfJFO6A9wT-UNVkbXoljkg/o.jpg", "is_closed": false, "url": "https://www.yelp.com/biz/la-wonderland-marijuana-dispensary-recreational-los-angeles-3?adjust_creative=sZ3yryoyE3Dcs3GsAvlcFA&utm_campaign=yelp_api_v3&utm_medium=api_v3_business_search&utm_source=sZ3yryoyE3Dcs3GsAvlcFA", "review_count": 48, "categories": [{"alias": "cannabisdispensaries", "title": "Cannabis Dispensaries"}], "rating": 3.0, "coordinates": {"latitude": 34.033994, "longitude": -118.264534}, "transactions": [], "price": "$$", "location": {"address1": "150 Venice Blvd", "address2": null, "address3": "", "city": "Los Angeles", "zip_code": "90015", "country": "US", "state": "CA", "display_address": ["150 Venice Blvd", "Los Angeles, CA 90015"]}, "phone": "+12137656099", "display_phone": "(213) 765-6099", "distance": 6070.116388693482}, {"id": "LYSYj6hMuljTCUwVI3UFpQ", "alias": "la-meds-4-less-los-angeles", "name": "LA Meds 4 Less", "image_url": "https://s3-media3.fl.yelpcdn.com/bphoto/FYzGCtbZHvalJ5EfHYyf3g/o.jpg", "is_closed": false, "url": "https://www.yelp.com/biz/la-meds-4-less-los-angeles?adjust_creative=sZ3yryoyE3Dcs3GsAvlcFA&utm_campaign=yelp_api_v3&utm_medium=api_v3_business_search&utm_source=sZ3yryoyE3Dcs3GsAvlcFA", "review_count": 13, "categories": [{"alias": "headshops", "title": "Head Shops"}, {"alias": "cannabisdispensaries", "title": "Cannabis Dispensaries"}, {"alias": "vapeshops", "title": "Vape Shops"}], "rating": 4.5, "coordinates": {"latitude": 34.0256790477334, "longitude": -118.2403121549}, "transactions": [], "location": {"address1": "1720 E 14th St", "address2": "Ste A", "address3": "", "city": "Los Angeles", "zip_code": "90021", "country": "US", "state": "CA", "display_address": ["1720 E 14th St", "Ste A", "Los Angeles, CA 90021"]}, "phone": "+12137449474", "display_phone": "(213) 744-9474", "distance": 8469.762889008138}, {"id": "hJlbplmkgPmA2Z9SAlGVSA", "alias": "the-farmacy-westwood-los-angeles-4", "name": "The Farmacy Westwood", "image_url": "https://s3-media2.fl.yelpcdn.com/bphoto/FYdPxgvLKZdG-Sdaj2-JPA/o.jpg", "is_closed": false, "url": "https://www.yelp.com/biz/the-farmacy-westwood-los-angeles-4?adjust_creative=sZ3yryoyE3Dcs3GsAvlcFA&utm_campaign=yelp_api_v3&utm_medium=api_v3_business_search&utm_source=sZ3yryoyE3Dcs3GsAvlcFA", "review_count": 26, "categories": [{"alias": "cannabis_clinics", "title": "Cannabis Clinics"}, {"alias": "cannabisdispensaries", "title": "Cannabis Dispensaries"}], "rating": 4.0, "coordinates": {"latitude": 34.06113, "longitude": -118.44765}, "transactions": [], "location": {"address1": "1035 Gayley Ave", "address2": null, "address3": "", "city": "Los Angeles", "zip_code": "90024", "country": "US", "state": "CA", "display_address": ["1035 Gayley Ave", "Los Angeles, CA 90024"]}, "phone": "+13104437722", "display_phone": "(310) 443-7722", "distance": 11615.918883733855}, {"id": "W2laFKDOEXh-0r0k2aRG1A", "alias": "green-cross-of-torrance-torrance-2", "name": "Green Cross of Torrance", "image_url": "https://s3-media2.fl.yelpcdn.com/bphoto/n7_vTFtKAgd6lNTyhOxy0g/o.jpg", "is_closed": false, "url": "https://www.yelp.com/biz/green-cross-of-torrance-torrance-2?adjust_creative=sZ3yryoyE3Dcs3GsAvlcFA&utm_campaign=yelp_api_v3&utm_medium=api_v3_business_search&utm_source=sZ3yryoyE3Dcs3GsAvlcFA", "review_count": 40, "categories": [{"alias": "cannabis_clinics", "title": "Cannabis Clinics"}, {"alias": "cannabisdispensaries", "title": "Cannabis Dispensaries"}, {"alias": "cannabiscollective", "title": "Cannabis Collective"}], "rating": 4.0, "coordinates": {"latitude": 33.8313551, "longitude": -118.3085481}, "transactions": [], "price": "$$", "location": {"address1": "1658 W Carson St", "address2": "", "address3": null, "city": "Torrance", "zip_code": "90501", "country": "US", "state": "CA", "display_address": ["1658 W Carson St", "Torrance, CA 90501"]}, "phone": "+13105339363", "display_phone": "(310) 533-9363", "distance": 25655.166369302267}, {"id": "aLRu5CfRvdo_rxe-YVGmqw", "alias": "mota-medicine-of-the-angels-los-angeles", "name": "MOTA Medicine Of The Angels", "image_url": "https://s3-media4.fl.yelpcdn.com/bphoto/G0PakKw2d1wniZg8_q1cBw/o.jpg", "is_closed": false, "url": "https://www.yelp.com/biz/mota-medicine-of-the-angels-los-angeles?adjust_creative=sZ3yryoyE3Dcs3GsAvlcFA&utm_campaign=yelp_api_v3&utm_medium=api_v3_business_search&utm_source=sZ3yryoyE3Dcs3GsAvlcFA", "review_count": 34, "categories": [{"alias": "cannabisdispensaries", "title": "Cannabis Dispensaries"}], "rating": 4.0, "coordinates": {"latitude": 34.09284, "longitude": -118.28034}, "transactions": [], "price": "$$", "location": {"address1": "4001 Sunset Blvd", "address2": "", "address3": null, "city": "Los Angeles", "zip_code": "90029", "country": "US", "state": "CA", "display_address": ["4001 Sunset Blvd", "Los Angeles, CA 90029"]}, "phone": "+13235223024", "display_phone": "(323) 522-3024", "distance": 5128.4133419591735}, {"id": "fb8G5KtfBRW7NJPxAxfoRg", "alias": "the-green-earth-farmacie-van-nuys", "name": "The Green Earth Farmacie", "image_url": "https://s3-media1.fl.yelpcdn.com/bphoto/d-0q2xLlvf_51Po0GXpGLA/o.jpg", "is_closed": false, "url": "https://www.yelp.com/biz/the-green-earth-farmacie-van-nuys?adjust_creative=sZ3yryoyE3Dcs3GsAvlcFA&utm_campaign=yelp_api_v3&utm_medium=api_v3_business_search&utm_source=sZ3yryoyE3Dcs3GsAvlcFA", "review_count": 9, "categories": [{"alias": "cannabisdispensaries", "title": "Cannabis Dispensaries"}], "rating": 5.0, "coordinates": {"latitude": 34.2117783364303, "longitude": -118.462784255872}, "transactions": [], "price": "$$$", "location": {"address1": "7756 Burnet Ave", "address2": null, "address3": null, "city": "Van Nuys", "zip_code": "91405", "country": "US", "state": "CA", "display_address": ["7756 Burnet Ave", "Van Nuys, CA 91405"]}, "phone": "+18189941045", "display_phone": "(818) 994-1045", "distance": 21172.32153363097}, {"id": "onBjKB9M_h75gsgZn3J48g", "alias": "the-reefinery-los-angeles", "name": "The Reefinery", "image_url": "https://s3-media3.fl.yelpcdn.com/bphoto/4xeTMduGFVwy8r9r3coJ_w/o.jpg", "is_closed": false, "url": "https://www.yelp.com/biz/the-reefinery-los-angeles?adjust_creative=sZ3yryoyE3Dcs3GsAvlcFA&utm_campaign=yelp_api_v3&utm_medium=api_v3_business_search&utm_source=sZ3yryoyE3Dcs3GsAvlcFA", "review_count": 14, "categories": [{"alias": "cannabisdispensaries", "title": "Cannabis Dispensaries"}], "rating": 4.5, "coordinates": {"latitude": 34.1796, "longitude": -118.4577}, "transactions": [], "location": {"address1": "14901 Oxnard St", "address2": "", "address3": null, "city": "Los Angeles", "zip_code": "91411", "country": "US", "state": "CA", "display_address": ["14901 Oxnard St", "Los Angeles, CA 91411"]}, "phone": "+18187786707", "display_phone": "(818) 778-6707", "distance": 18157.46523159931}, {"id": "bwmX4AfNi9bKPbkrEmDHNw", "alias": "clones-on-fire-los-angeles-5", "name": "Clones On Fire", "image_url": "https://s3-media2.fl.yelpcdn.com/bphoto/LwTgTj2BxhHssFK0WRaTLA/o.jpg", "is_closed": false, "url": "https://www.yelp.com/biz/clones-on-fire-los-angeles-5?adjust_creative=sZ3yryoyE3Dcs3GsAvlcFA&utm_campaign=yelp_api_v3&utm_medium=api_v3_business_search&utm_source=sZ3yryoyE3Dcs3GsAvlcFA", "review_count": 14, "categories": [{"alias": "cannabisdispensaries", "title": "Cannabis Dispensaries"}], "rating": 4.0, "coordinates": {"latitude": 34.0295114, "longitude": -118.2848199}, "transactions": [], "price": "$", "location": {"address1": null, "address2": null, "address3": "", "city": "Los Angeles", "zip_code": "90007", "country": "US", "state": "CA", "display_address": ["Los Angeles, CA 90007"]}, "phone": "+14242760520", "display_phone": "(424) 276-0520", "distance": 4906.111148449467}, {"id": "4KbtXDM44XdBWQnR6IX9dw", "alias": "new-age-care-center-los-angeles", "name": "New Age Care Center", "image_url": "https://s3-media4.fl.yelpcdn.com/bphoto/NsA3oKLrnFvJQnXnk0pHqw/o.jpg", "is_closed": false, "url": "https://www.yelp.com/biz/new-age-care-center-los-angeles?adjust_creative=sZ3yryoyE3Dcs3GsAvlcFA&utm_campaign=yelp_api_v3&utm_medium=api_v3_business_search&utm_source=sZ3yryoyE3Dcs3GsAvlcFA", "review_count": 15, "categories": [{"alias": "cannabisdispensaries", "title": "Cannabis Dispensaries"}], "rating": 4.0, "coordinates": {"latitude": 34.01078, "longitude": -118.2796}, "transactions": [], "location": {"address1": "350 W Martin Luther King Jr Blvd", "address2": null, "address3": "", "city": "Los Angeles", "zip_code": "90037", "country": "US", "state": "CA", "display_address": ["350 W Martin Luther King Jr Blvd", "Los Angeles, CA 90037"]}, "phone": "+13232312795", "display_phone": "(323) 231-2795", "distance": 6832.348579582081}, {"id": "3GLM3nt9edFd6k-LaFeNFw", "alias": "new-amsterdam-naturals-nncc-los-angeles", "name": "New Amsterdam Naturals - NNCC", "image_url": "https://s3-media4.fl.yelpcdn.com/bphoto/kW3FRwlwCqgxDxUWsXXyig/o.jpg", "is_closed": false, "url": "https://www.yelp.com/biz/new-amsterdam-naturals-nncc-los-angeles?adjust_creative=sZ3yryoyE3Dcs3GsAvlcFA&utm_campaign=yelp_api_v3&utm_medium=api_v3_business_search&utm_source=sZ3yryoyE3Dcs3GsAvlcFA", "review_count": 30, "categories": [{"alias": "cannabisdispensaries", "title": "Cannabis Dispensaries"}], "rating": 3.5, "coordinates": {"latitude": 34.02887, "longitude": -118.3927}, "transactions": [], "price": "$$$", "location": {"address1": "9021 Exposition Blvd", "address2": null, "address3": "", "city": "Los Angeles", "zip_code": "90034", "country": "US", "state": "CA", "display_address": ["9021 Exposition Blvd", "Los Angeles, CA 90034"]}, "phone": "+13102026622", "display_phone": "(310) 202-6622", "distance": 7501.450156872195}, {"id": "P1KM-UV4L6wilrv9UPmFQg", "alias": "compassion-union-north-hollywood", "name": "Compassion Union", "image_url": "https://s3-media2.fl.yelpcdn.com/bphoto/-0WcXiPLnUjbzgBevgnlaA/o.jpg", "is_closed": false, "url": "https://www.yelp.com/biz/compassion-union-north-hollywood?adjust_creative=sZ3yryoyE3Dcs3GsAvlcFA&utm_campaign=yelp_api_v3&utm_medium=api_v3_business_search&utm_source=sZ3yryoyE3Dcs3GsAvlcFA", "review_count": 9, "categories": [{"alias": "cannabisdispensaries", "title": "Cannabis Dispensaries"}], "rating": 4.5, "coordinates": {"latitude": 34.19417, "longitude": -118.38673}, "transactions": [], "price": "$$", "location": {"address1": "11669 Vanowen St", "address2": null, "address3": "", "city": "North Hollywood", "zip_code": "91605", "country": "US", "state": "CA", "display_address": ["11669 Vanowen St", "North Hollywood, CA 91605"]}, "phone": "+18183086065", "display_phone": "(818) 308-6065", "distance": 15920.580229990188}, {"id": "aE4Kgo3zpuwYkllsk9k6dA", "alias": "the-balloon-room-los-angeles", "name": "The Balloon Room", "image_url": "https://s3-media3.fl.yelpcdn.com/bphoto/Vil60sAWnoIcQWWYtWSwew/o.jpg", "is_closed": false, "url": "https://www.yelp.com/biz/the-balloon-room-los-angeles?adjust_creative=sZ3yryoyE3Dcs3GsAvlcFA&utm_campaign=yelp_api_v3&utm_medium=api_v3_business_search&utm_source=sZ3yryoyE3Dcs3GsAvlcFA", "review_count": 9, "categories": [{"alias": "cannabisdispensaries", "title": "Cannabis Dispensaries"}], "rating": 4.0, "coordinates": {"latitude": 34.04582, "longitude": -118.2606}, "transactions": [], "location": {"address1": "645 W 9th St", "address2": null, "address3": "", "city": "Los Angeles", "zip_code": "90015", "country": "US", "state": "CA", "display_address": ["645 W 9th St", "Los Angeles, CA 90015"]}, "phone": "+12132467312", "display_phone": "(213) 246-7312", "distance": 5869.035591231919}, {"id": "Ms-pjzLFspKUNCLAlhVrMA", "alias": "limited-edition420-los-angeles-5", "name": "Limited Edition420", "image_url": "https://s3-media1.fl.yelpcdn.com/bphoto/hr4RM4lqNDxdcnrQhZjX4g/o.jpg", "is_closed": false, "url": "https://www.yelp.com/biz/limited-edition420-los-angeles-5?adjust_creative=sZ3yryoyE3Dcs3GsAvlcFA&utm_campaign=yelp_api_v3&utm_medium=api_v3_business_search&utm_source=sZ3yryoyE3Dcs3GsAvlcFA", "review_count": 6, "categories": [{"alias": "cannabisdispensaries", "title": "Cannabis Dispensaries"}], "rating": 5.0, "coordinates": {"latitude": 34.09996, "longitude": -118.32698}, "transactions": [], "location": {"address1": null, "address2": null, "address3": "", "city": "Los Angeles", "zip_code": "90028", "country": "US", "state": "CA", "display_address": ["Los Angeles, CA 90028"]}, "phone": "+13238001985", "display_phone": "(323) 800-1985", "distance": 4424.733221753789}, {"id": "c4eC2wY_RRNgIAN4wwurIw", "alias": "kush-alley-north-hills", "name": "Kush Alley", "image_url": "https://s3-media1.fl.yelpcdn.com/bphoto/VFMlD44njXNZekORd2JZhg/o.jpg", "is_closed": false, "url": "https://www.yelp.com/biz/kush-alley-north-hills?adjust_creative=sZ3yryoyE3Dcs3GsAvlcFA&utm_campaign=yelp_api_v3&utm_medium=api_v3_business_search&utm_source=sZ3yryoyE3Dcs3GsAvlcFA", "review_count": 15, "categories": [{"alias": "cannabisdispensaries", "title": "Cannabis Dispensaries"}], "rating": 4.0, "coordinates": {"latitude": 34.222696104142, "longitude": -118.497881285285}, "transactions": [], "price": "$$", "location": {"address1": "16733 Schoenborn St", "address2": null, "address3": "", "city": "North Hills", "zip_code": "91343", "country": "US", "state": "CA", "display_address": ["16733 Schoenborn St", "North Hills, CA 91343"]}, "phone": "+18188109642", "display_phone": "(818) 810-9642", "distance": 24181.93315603352}, {"id": "UxeGf-eXCSViWMye_767tg", "alias": "lb-collective-long-beach-2", "name": "LB Collective", "image_url": "https://s3-media4.fl.yelpcdn.com/bphoto/8wErXTZRGvNkKM7atuQDJQ/o.jpg", "is_closed": false, "url": "https://www.yelp.com/biz/lb-collective-long-beach-2?adjust_creative=sZ3yryoyE3Dcs3GsAvlcFA&utm_campaign=yelp_api_v3&utm_medium=api_v3_business_search&utm_source=sZ3yryoyE3Dcs3GsAvlcFA", "review_count": 10, "categories": [{"alias": "cannabisdispensaries", "title": "Cannabis Dispensaries"}, {"alias": "cannabiscollective", "title": "Cannabis Collective"}, {"alias": "cannabis_clinics", "title": "Cannabis Clinics"}], "rating": 4.5, "coordinates": {"latitude": 33.87491, "longitude": -118.17117}, "transactions": [], "location": {"address1": "1731 E Artesia Blvd", "address2": null, "address3": "", "city": "Long Beach", "zip_code": "90805", "country": "US", "state": "CA", "display_address": ["1731 E Artesia Blvd", "Long Beach, CA 90805"]}, "phone": "+15624220011", "display_phone": "(562) 422-0011", "distance": 24954.510797993866}, {"id": "0zyJAQK15vOidZlc8ObknA", "alias": "la-cannabis-co-inglewood-los-angeles", "name": "LA Cannabis Co - Inglewood", "image_url": "https://s3-media2.fl.yelpcdn.com/bphoto/wEhmSe_GGBOoaY2H249_8g/o.jpg", "is_closed": false, "url": "https://www.yelp.com/biz/la-cannabis-co-inglewood-los-angeles?adjust_creative=sZ3yryoyE3Dcs3GsAvlcFA&utm_campaign=yelp_api_v3&utm_medium=api_v3_business_search&utm_source=sZ3yryoyE3Dcs3GsAvlcFA", "review_count": 5, "categories": [{"alias": "cannabisdispensaries", "title": "Cannabis Dispensaries"}], "rating": 4.5, "coordinates": {"latitude": 33.98545, "longitude": -118.31199}, "transactions": [], "location": {"address1": "5993 S Saint Andrews Pl", "address2": null, "address3": "", "city": "Los Angeles", "zip_code": "90047", "country": "US", "state": "CA", "display_address": ["5993 S Saint Andrews Pl", "Los Angeles, CA 90047"]}, "phone": "+13237788540", "display_phone": "(323) 778-8540", "distance": 8509.7397135027}, {"id": "g6Y2VDt7QZQMuP6DQvcBEw", "alias": "happy-leaf-collective-los-angeles-2", "name": "Happy Leaf Collective", "image_url": "https://s3-media3.fl.yelpcdn.com/bphoto/vm5xcNTAs6MA60qlzn1Fcg/o.jpg", "is_closed": false, "url": "https://www.yelp.com/biz/happy-leaf-collective-los-angeles-2?adjust_creative=sZ3yryoyE3Dcs3GsAvlcFA&utm_campaign=yelp_api_v3&utm_medium=api_v3_business_search&utm_source=sZ3yryoyE3Dcs3GsAvlcFA", "review_count": 21, "categories": [{"alias": "cannabisdispensaries", "title": "Cannabis Dispensaries"}], "rating": 3.5, "coordinates": {"latitude": 34.04422, "longitude": -118.43246}, "transactions": [], "location": {"address1": "2131 Westwood Blvd", "address2": null, "address3": "", "city": "Los Angeles", "zip_code": "90025", "country": "US", "state": "CA", "display_address": ["2131 Westwood Blvd", "Los Angeles, CA 90025"]}, "phone": "+13104752500", "display_phone": "(310) 475-2500", "distance": 10403.155175511076}, {"id": "uTTmKZGaAVcKuVim7uCi2g", "alias": "greenwolf-la-los-angeles", "name": "GREENWOLF LA", "image_url": "https://s3-media2.fl.yelpcdn.com/bphoto/0LUptdlJB84_z2OO_Y0Hpw/o.jpg", "is_closed": false, "url": "https://www.yelp.com/biz/greenwolf-la-los-angeles?adjust_creative=sZ3yryoyE3Dcs3GsAvlcFA&utm_campaign=yelp_api_v3&utm_medium=api_v3_business_search&utm_source=sZ3yryoyE3Dcs3GsAvlcFA", "review_count": 26, "categories": [{"alias": "cannabisdispensaries", "title": "Cannabis Dispensaries"}], "rating": 3.0, "coordinates": {"latitude": 34.1256846, "longitude": -118.2639331}, "transactions": [], "price": "$$", "location": {"address1": "2950 Los Feliz Blvd", "address2": "Ste 100", "address3": null, "city": "Los Angeles", "zip_code": "90039", "country": "US", "state": "CA", "display_address": ["2950 Los Feliz Blvd", "Ste 100", "Los Angeles, CA 90039"]}, "phone": "+13236689390", "display_phone": "(323) 668-9390", "distance": 8875.700964248452}, {"id": "huDepn10WhKWnQ8Pula40Q", "alias": "lit-co-los-angeles", "name": "Lit Co", "image_url": "https://s3-media3.fl.yelpcdn.com/bphoto/zdb7A_EHZIrfX03SF1ImaA/o.jpg", "is_closed": false, "url": "https://www.yelp.com/biz/lit-co-los-angeles?adjust_creative=sZ3yryoyE3Dcs3GsAvlcFA&utm_campaign=yelp_api_v3&utm_medium=api_v3_business_search&utm_source=sZ3yryoyE3Dcs3GsAvlcFA", "review_count": 8, "categories": [{"alias": "cannabisdispensaries", "title": "Cannabis Dispensaries"}], "rating": 4.0, "coordinates": {"latitude": 34.03941, "longitude": -118.2677}, "transactions": [], "location": {"address1": "1323 S Flower St", "address2": null, "address3": "", "city": "Los Angeles", "zip_code": "90015", "country": "US", "state": "CA", "display_address": ["1323 S Flower St", "Los Angeles, CA 90015"]}, "phone": "+12135365400", "display_phone": "(213) 536-5400", "distance": 5522.404897998454}, {"id": "se4PQcFbzrmX0KjeyyS3Ow", "alias": "cannajuana-releaf-glendale", "name": "Cannajuana Releaf", "image_url": "https://s3-media1.fl.yelpcdn.com/bphoto/RLkhq1gFzxCvBErwu5DYLg/o.jpg", "is_closed": false, "url": "https://www.yelp.com/biz/cannajuana-releaf-glendale?adjust_creative=sZ3yryoyE3Dcs3GsAvlcFA&utm_campaign=yelp_api_v3&utm_medium=api_v3_business_search&utm_source=sZ3yryoyE3Dcs3GsAvlcFA", "review_count": 4, "categories": [{"alias": "cannabisdispensaries", "title": "Cannabis Dispensaries"}], "rating": 5.0, "coordinates": {"latitude": 34.13526, "longitude": -118.24425}, "transactions": [], "price": "$$", "location": {"address1": "", "address2": "", "address3": null, "city": "Glendale", "zip_code": "91205", "country": "US", "state": "CA", "display_address": ["Glendale, CA 91205"]}, "phone": "+18184828589", "display_phone": "(818) 482-8589", "distance": 10559.33016085644}, {"id": "0DT-brtm0-y0ZRX-IgOFXQ", "alias": "herbal-nature-los-angeles", "name": "Herbal Nature", "image_url": "https://s3-media4.fl.yelpcdn.com/bphoto/_ITWm8blHVQ0FJjP93-Dvg/o.jpg", "is_closed": false, "url": "https://www.yelp.com/biz/herbal-nature-los-angeles?adjust_creative=sZ3yryoyE3Dcs3GsAvlcFA&utm_campaign=yelp_api_v3&utm_medium=api_v3_business_search&utm_source=sZ3yryoyE3Dcs3GsAvlcFA", "review_count": 8, "categories": [{"alias": "cannabisdispensaries", "title": "Cannabis Dispensaries"}], "rating": 4.0, "coordinates": {"latitude": 34.0412657611647, "longitude": -118.253331611495}, "transactions": [], "location": {"address1": "837 S Los Angeles St", "address2": "", "address3": null, "city": "Los Angeles", "zip_code": "90014", "country": "US", "state": "CA", "display_address": ["837 S Los Angeles St", "Los Angeles, CA 90014"]}, "phone": "+12139437950", "display_phone": "(213) 943-7950", "distance": 6664.153689799671}, {"id": "l8sfwJunHBpNE24wopl8MA", "alias": "fountain-of-wellbeing-north-hollywood-2", "name": "Fountain Of Wellbeing", "image_url": "https://s3-media2.fl.yelpcdn.com/bphoto/pg-MHqqZ7ccD28EOsw62Tg/o.jpg", "is_closed": false, "url": "https://www.yelp.com/biz/fountain-of-wellbeing-north-hollywood-2?adjust_creative=sZ3yryoyE3Dcs3GsAvlcFA&utm_campaign=yelp_api_v3&utm_medium=api_v3_business_search&utm_source=sZ3yryoyE3Dcs3GsAvlcFA", "review_count": 4, "categories": [{"alias": "cannabisdispensaries", "title": "Cannabis Dispensaries"}, {"alias": "cannabiscollective", "title": "Cannabis Collective"}], "rating": 5.0, "coordinates": {"latitude": 34.2021534, "longitude": -118.3910774}, "transactions": [], "location": {"address1": "7231 Hinds Ave", "address2": null, "address3": "", "city": "North Hollywood", "zip_code": "91605", "country": "US", "state": "CA", "display_address": ["7231 Hinds Ave", "North Hollywood, CA 91605"]}, "phone": "+18189827420", "display_phone": "(818) 982-7420", "distance": 16895.204546777728}, {"id": "f1Hctb8Kk1SCHWaqh3ydrg", "alias": "shivas-dtla-los-angeles", "name": "Shivas Dtla", "image_url": "https://s3-media3.fl.yelpcdn.com/bphoto/6jKWbinPFliaOt62y3KrRw/o.jpg", "is_closed": false, "url": "https://www.yelp.com/biz/shivas-dtla-los-angeles?adjust_creative=sZ3yryoyE3Dcs3GsAvlcFA&utm_campaign=yelp_api_v3&utm_medium=api_v3_business_search&utm_source=sZ3yryoyE3Dcs3GsAvlcFA", "review_count": 5, "categories": [{"alias": "cannabisdispensaries", "title": "Cannabis Dispensaries"}], "rating": 4.5, "coordinates": {"latitude": 34.03679, "longitude": -118.26325}, "transactions": [], "price": "$$", "location": {"address1": "1343 S Hill St", "address2": null, "address3": null, "city": "Los Angeles", "zip_code": "90015", "country": "US", "state": "CA", "display_address": ["1343 S Hill St", "Los Angeles, CA 90015"]}, "phone": "+12138840764", "display_phone": "(213) 884-0764", "distance": 6016.767822635631}, {"id": "zfc6345zFWA1TlbzGhl9iQ", "alias": "the-pottery-los-angeles-3", "name": "The Pottery", "image_url": "https://s3-media2.fl.yelpcdn.com/bphoto/9_Cf_qyatdfzI3jJ35mX5w/o.jpg", "is_closed": false, "url": "https://www.yelp.com/biz/the-pottery-los-angeles-3?adjust_creative=sZ3yryoyE3Dcs3GsAvlcFA&utm_campaign=yelp_api_v3&utm_medium=api_v3_business_search&utm_source=sZ3yryoyE3Dcs3GsAvlcFA", "review_count": 6, "categories": [{"alias": "cannabis_clinics", "title": "Cannabis Clinics"}, {"alias": "cannabisdispensaries", "title": "Cannabis Dispensaries"}], "rating": 5.0, "coordinates": {"latitude": 34.03348, "longitude": -118.47366}, "transactions": [], "location": {"address1": "", "address2": "", "address3": "", "city": "Los Angeles", "zip_code": "90404", "country": "US", "state": "CA", "display_address": ["Los Angeles, CA 90404"]}, "phone": "+14242565388", "display_phone": "(424) 256-5388", "distance": 14331.750653749592}, {"id": "oJXpN-lTGPVzjAUH3Npd3g", "alias": "natural-remedies-caregivers-los-angeles", "name": "Natural Remedies Caregivers", "image_url": "https://s3-media1.fl.yelpcdn.com/bphoto/0um2YM47FnMyqsygzUaG2A/o.jpg", "is_closed": false, "url": "https://www.yelp.com/biz/natural-remedies-caregivers-los-angeles?adjust_creative=sZ3yryoyE3Dcs3GsAvlcFA&utm_campaign=yelp_api_v3&utm_medium=api_v3_business_search&utm_source=sZ3yryoyE3Dcs3GsAvlcFA", "review_count": 14, "categories": [{"alias": "cannabis_clinics", "title": "Cannabis Clinics"}, {"alias": "cannabisdispensaries", "title": "Cannabis Dispensaries"}], "rating": 3.0, "coordinates": {"latitude": 34.087443, "longitude": -118.309602}, "transactions": [], "location": {"address1": "927 1/2 N Western", "address2": "", "address3": "", "city": "Los Angeles", "zip_code": "90029", "country": "US", "state": "CA", "display_address": ["927 1/2 N Western", "Los Angeles, CA 90029"]}, "phone": "+13238719500", "display_phone": "(323) 871-9500", "distance": 3072.6553796419075}, {"id": "DSPGMObVcPH2-_hoOlhnAg", "alias": "westside-organic-delivery-santa-monica", "name": "Westside Organic Delivery", "image_url": "https://s3-media2.fl.yelpcdn.com/bphoto/153iqQhZme8CrN8ubPGbBQ/o.jpg", "is_closed": false, "url": "https://www.yelp.com/biz/westside-organic-delivery-santa-monica?adjust_creative=sZ3yryoyE3Dcs3GsAvlcFA&utm_campaign=yelp_api_v3&utm_medium=api_v3_business_search&utm_source=sZ3yryoyE3Dcs3GsAvlcFA", "review_count": 8, "categories": [{"alias": "cannabisdispensaries", "title": "Cannabis Dispensaries"}, {"alias": "cannabiscollective", "title": "Cannabis Collective"}], "rating": 4.5, "coordinates": {"latitude": 34.0306434631348, "longitude": -118.490600585938}, "transactions": [], "location": {"address1": "", "address2": "", "address3": "", "city": "Santa Monica", "zip_code": "90403", "country": "US", "state": "CA", "display_address": ["Santa Monica, CA 90403"]}, "phone": "+13103099752", "display_phone": "(310) 309-9752", "distance": 16441.018989365988}, {"id": "BBJKcmLHfjvbUV_ooyppNg", "alias": "la-cannabis-co-los-angeles-los-angeles-5", "name": "LA Cannabis Co - Los Angeles", "image_url": "https://s3-media3.fl.yelpcdn.com/bphoto/hAaX8ihfNkxhpryscDpc_Q/o.jpg", "is_closed": false, "url": "https://www.yelp.com/biz/la-cannabis-co-los-angeles-los-angeles-5?adjust_creative=sZ3yryoyE3Dcs3GsAvlcFA&utm_campaign=yelp_api_v3&utm_medium=api_v3_business_search&utm_source=sZ3yryoyE3Dcs3GsAvlcFA", "review_count": 7, "categories": [{"alias": "cannabisdispensaries", "title": "Cannabis Dispensaries"}, {"alias": "cannabis_clinics", "title": "Cannabis Clinics"}, {"alias": "cannabiscollective", "title": "Cannabis Collective"}], "rating": 3.5, "coordinates": {"latitude": 34.0187479, "longitude": -118.3193331}, "transactions": [], "price": "$", "location": {"address1": "3791 2nd Ave", "address2": null, "address3": "", "city": "Los Angeles", "zip_code": "90018", "country": "US", "state": "CA", "display_address": ["3791 2nd Ave", "Los Angeles, CA 90018"]}, "phone": "+13237333644", "display_phone": "(323) 733-3644", "distance": 4767.502497442469}, {"id": "vbpwOJ1GzxXG_w0aWxeeXA", "alias": "the-green-rose-los-angeles", "name": "The Green Rose", "image_url": "https://s3-media1.fl.yelpcdn.com/bphoto/F5BpB9rriQHmS9A6qguLXg/o.jpg", "is_closed": false, "url": "https://www.yelp.com/biz/the-green-rose-los-angeles?adjust_creative=sZ3yryoyE3Dcs3GsAvlcFA&utm_campaign=yelp_api_v3&utm_medium=api_v3_business_search&utm_source=sZ3yryoyE3Dcs3GsAvlcFA", "review_count": 25, "categories": [{"alias": "cannabisdispensaries", "title": "Cannabis Dispensaries"}], "rating": 2.0, "coordinates": {"latitude": 34.08371, "longitude": -118.29986}, "transactions": [], "price": "$$", "location": {"address1": "4569 Melrose Ave", "address2": "", "address3": null, "city": "Los Angeles", "zip_code": "90029", "country": "US", "state": "CA", "display_address": ["4569 Melrose Ave", "Los Angeles, CA 90029"]}, "phone": "+13237633757", "display_phone": "(323) 763-3757", "distance": 3158.8540749762783}, {"id": "bMJ8sIg1thexOxgmXmp0SA", "alias": "connected-cannabis-long-beach", "name": "Connected Cannabis", "image_url": "https://s3-media3.fl.yelpcdn.com/bphoto/hbCPogP9DXNLpkm8hxznTA/o.jpg", "is_closed": false, "url": "https://www.yelp.com/biz/connected-cannabis-long-beach?adjust_creative=sZ3yryoyE3Dcs3GsAvlcFA&utm_campaign=yelp_api_v3&utm_medium=api_v3_business_search&utm_source=sZ3yryoyE3Dcs3GsAvlcFA", "review_count": 8, "categories": [{"alias": "cannabisdispensaries", "title": "Cannabis Dispensaries"}], "rating": 4.5, "coordinates": {"latitude": 33.81496, "longitude": -118.16671}, "transactions": [], "location": {"address1": "3170 Cherry Ave", "address2": null, "address3": "", "city": "Long Beach", "zip_code": "90807", "country": "US", "state": "CA", "display_address": ["3170 Cherry Ave", "Long Beach, CA 90807"]}, "phone": "+15624262420", "display_phone": "(562) 426-2420", "distance": 30908.39698295998}, {"id": "KXWXBI-seHfV1sz7Z6VnXg", "alias": "hollywood-holistic-los-angeles-7", "name": "Hollywood Holistic", "image_url": "https://s3-media4.fl.yelpcdn.com/bphoto/kTJKJFWwSdNT5maQ5IwcBw/o.jpg", "is_closed": false, "url": "https://www.yelp.com/biz/hollywood-holistic-los-angeles-7?adjust_creative=sZ3yryoyE3Dcs3GsAvlcFA&utm_campaign=yelp_api_v3&utm_medium=api_v3_business_search&utm_source=sZ3yryoyE3Dcs3GsAvlcFA", "review_count": 4, "categories": [{"alias": "cannabisdispensaries", "title": "Cannabis Dispensaries"}], "rating": 4.0, "coordinates": {"latitude": 34.098441, "longitude": -118.307939}, "transactions": [], "location": {"address1": "5419 Sunset Blvd", "address2": "Ste 5", "address3": null, "city": "Los Angeles", "zip_code": "90027", "country": "US", "state": "CA", "display_address": ["5419 Sunset Blvd", "Ste 5", "Los Angeles, CA 90027"]}, "phone": "+13234991522", "display_phone": "(323) 499-1522", "distance": 4280.603682975549}, {"id": "_ikrEALns8XtS4ry1jYQQg", "alias": "cali-rx-los-angeles", "name": "Cali RX", "image_url": "https://s3-media3.fl.yelpcdn.com/bphoto/9c2bt1moavQKwb2LFduynA/o.jpg", "is_closed": false, "url": "https://www.yelp.com/biz/cali-rx-los-angeles?adjust_creative=sZ3yryoyE3Dcs3GsAvlcFA&utm_campaign=yelp_api_v3&utm_medium=api_v3_business_search&utm_source=sZ3yryoyE3Dcs3GsAvlcFA", "review_count": 6, "categories": [{"alias": "cannabisdispensaries", "title": "Cannabis Dispensaries"}], "rating": 4.0, "coordinates": {"latitude": 34.14877, "longitude": -118.43756}, "transactions": [], "price": "$$", "location": {"address1": "14006 Ventura Blvd", "address2": null, "address3": "", "city": "Los Angeles", "zip_code": "91423", "country": "US", "state": "CA", "display_address": ["14006 Ventura Blvd", "Los Angeles, CA 91423"]}, "phone": "+18183868335", "display_phone": "(818) 386-8335", "distance": 14439.954539169808}, {"id": "8U3FaCV48uG1JWXvk9Uq_A", "alias": "the-garden-secrets-los-angeles", "name": "The Garden Secrets", "image_url": "https://s3-media1.fl.yelpcdn.com/bphoto/om2yTVMksBfhuMFKhui1Jw/o.jpg", "is_closed": false, "url": "https://www.yelp.com/biz/the-garden-secrets-los-angeles?adjust_creative=sZ3yryoyE3Dcs3GsAvlcFA&utm_campaign=yelp_api_v3&utm_medium=api_v3_business_search&utm_source=sZ3yryoyE3Dcs3GsAvlcFA", "review_count": 10, "categories": [{"alias": "cannabisdispensaries", "title": "Cannabis Dispensaries"}], "rating": 3.0, "coordinates": {"latitude": 34.08325, "longitude": -118.34791}, "transactions": [], "location": {"address1": "7262 Melrose Ave", "address2": null, "address3": "", "city": "Los Angeles", "zip_code": "90046", "country": "US", "state": "CA", "display_address": ["7262 Melrose Ave", "Los Angeles, CA 90046"]}, "phone": "", "display_phone": "", "distance": 3439.315374759295}, {"id": "rcQ7uZzCLVqLjo-nnEvxBQ", "alias": "mk-wellness-los-angeles", "name": "MK Wellness", "image_url": "https://s3-media4.fl.yelpcdn.com/bphoto/bsE4FhefuPKgx7L1rKKB8g/o.jpg", "is_closed": false, "url": "https://www.yelp.com/biz/mk-wellness-los-angeles?adjust_creative=sZ3yryoyE3Dcs3GsAvlcFA&utm_campaign=yelp_api_v3&utm_medium=api_v3_business_search&utm_source=sZ3yryoyE3Dcs3GsAvlcFA", "review_count": 8, "categories": [{"alias": "cannabisdispensaries", "title": "Cannabis Dispensaries"}], "rating": 3.5, "coordinates": {"latitude": 34.0332832336426, "longitude": -118.262367248535}, "transactions": [], "price": "$", "location": {"address1": "1600 S Main St", "address2": null, "address3": "", "city": "Los Angeles", "zip_code": "90015", "country": "US", "state": "CA", "display_address": ["1600 S Main St", "Los Angeles, CA 90015"]}, "phone": "+12137479333", "display_phone": "(213) 747-9333", "distance": 6282.314947177171}, {"id": "Ky8QzhTCc49G8aiA4AbxFA", "alias": "sun-valley-caregivers-sun-valley", "name": "Sun Valley Caregivers", "image_url": "https://s3-media3.fl.yelpcdn.com/bphoto/n5ObvMe794n3jwebeRPi5A/o.jpg", "is_closed": false, "url": "https://www.yelp.com/biz/sun-valley-caregivers-sun-valley?adjust_creative=sZ3yryoyE3Dcs3GsAvlcFA&utm_campaign=yelp_api_v3&utm_medium=api_v3_business_search&utm_source=sZ3yryoyE3Dcs3GsAvlcFA", "review_count": 6, "categories": [{"alias": "cannabis_clinics", "title": "Cannabis Clinics"}, {"alias": "cannabisdispensaries", "title": "Cannabis Dispensaries"}], "rating": 4.0, "coordinates": {"latitude": 34.2380086, "longitude": -118.3698842}, "transactions": [], "price": "$", "location": {"address1": "11000 Randall St", "address2": "Ste E", "address3": null, "city": "Sun Valley", "zip_code": "91352", "country": "US", "state": "CA", "display_address": ["11000 Randall St", "Ste E", "Sun Valley, CA 91352"]}, "phone": "+18185042661", "display_phone": "(818) 504-2661", "distance": 20055.551415045196}, {"id": "mCKQMkAqrl4wVT6t3aTtKQ", "alias": "hollyweed-los-angeles", "name": "Hollyweed", "image_url": "https://s3-media2.fl.yelpcdn.com/bphoto/MbHGw-bvbJzDUcmWDhiQ9A/o.jpg", "is_closed": false, "url": "https://www.yelp.com/biz/hollyweed-los-angeles?adjust_creative=sZ3yryoyE3Dcs3GsAvlcFA&utm_campaign=yelp_api_v3&utm_medium=api_v3_business_search&utm_source=sZ3yryoyE3Dcs3GsAvlcFA", "review_count": 11, "categories": [{"alias": "cannabisdispensaries", "title": "Cannabis Dispensaries"}], "rating": 3.0, "coordinates": {"latitude": 34.04442, "longitude": -118.35258}, "transactions": [], "location": {"address1": "5158 Venice Blvd", "address2": "", "address3": "", "city": "Los Angeles", "zip_code": "90019", "country": "US", "state": "CA", "display_address": ["5158 Venice Blvd", "Los Angeles, CA 90019"]}, "phone": "+13235923113", "display_phone": "(323) 592-3113", "distance": 3404.5441588638705}, {"id": "yUXxmQuHmRHEkig81newxA", "alias": "smartweed-los-angeles", "name": "Smartweed", "image_url": "https://s3-media3.fl.yelpcdn.com/bphoto/OqCSOudQaa4NIeLSrCreiw/o.jpg", "is_closed": false, "url": "https://www.yelp.com/biz/smartweed-los-angeles?adjust_creative=sZ3yryoyE3Dcs3GsAvlcFA&utm_campaign=yelp_api_v3&utm_medium=api_v3_business_search&utm_source=sZ3yryoyE3Dcs3GsAvlcFA", "review_count": 8, "categories": [{"alias": "cannabis_clinics", "title": "Cannabis Clinics"}, {"alias": "headshops", "title": "Head Shops"}, {"alias": "cannabisdispensaries", "title": "Cannabis Dispensaries"}], "rating": 3.5, "coordinates": {"latitude": 34.08953, "longitude": -118.30872}, "transactions": [], "location": {"address1": "1040 North Western Ave", "address2": null, "address3": "", "city": "Los Angeles", "zip_code": "90029", "country": "US", "state": "CA", "display_address": ["1040 North Western Ave", "Los Angeles, CA 90029"]}, "phone": "+13236728383", "display_phone": "(323) 672-8383", "distance": 3315.828570274407}, {"id": "la26QKc4Drkwr7Gi7nqInA", "alias": "arts-district-cannabis-collective-los-angeles-2", "name": "Arts District Cannabis Collective", "image_url": "https://s3-media1.fl.yelpcdn.com/bphoto/mQpdOa3-Ia6JvlVXC1wIhQ/o.jpg", "is_closed": false, "url": "https://www.yelp.com/biz/arts-district-cannabis-collective-los-angeles-2?adjust_creative=sZ3yryoyE3Dcs3GsAvlcFA&utm_campaign=yelp_api_v3&utm_medium=api_v3_business_search&utm_source=sZ3yryoyE3Dcs3GsAvlcFA", "review_count": 3, "categories": [{"alias": "cannabisdispensaries", "title": "Cannabis Dispensaries"}], "rating": 4.5, "coordinates": {"latitude": 34.0258621153614, "longitude": -118.233082213054}, "transactions": [], "price": "$", "location": {"address1": "2222 E Olympic Blvd", "address2": "", "address3": null, "city": "Los Angeles", "zip_code": "90021", "country": "US", "state": "CA", "display_address": ["2222 E Olympic Blvd", "Los Angeles, CA 90021"]}, "phone": "+12134298979", "display_phone": "(213) 429-8979", "distance": 9053.718370821329}, {"id": "_JRYjJh-IOi2CtlW4ZFxrA", "alias": "bekind-meds-los-angeles-2", "name": "BeKind Meds", "image_url": "https://s3-media2.fl.yelpcdn.com/bphoto/U2JcqcBdzNY6fjsUGIsgcA/o.jpg", "is_closed": false, "url": "https://www.yelp.com/biz/bekind-meds-los-angeles-2?adjust_creative=sZ3yryoyE3Dcs3GsAvlcFA&utm_campaign=yelp_api_v3&utm_medium=api_v3_business_search&utm_source=sZ3yryoyE3Dcs3GsAvlcFA", "review_count": 2, "categories": [{"alias": "cannabisdispensaries", "title": "Cannabis Dispensaries"}], "rating": 5.0, "coordinates": {"latitude": 34.09821, "longitude": -118.35239}, "transactions": [], "price": "$", "location": {"address1": "", "address2": null, "address3": "", "city": "Los Angeles", "zip_code": "90046", "country": "US", "state": "CA", "display_address": ["Los Angeles, CA 90046"]}, "phone": "+13236130474", "display_phone": "(323) 613-0474", "distance": 7079.830618359903}, {"id": "Duu6mB5vjdUcXxUcmpRK_g", "alias": "the-pottery-los-angeles-2", "name": "The Pottery", "image_url": "https://s3-media1.fl.yelpcdn.com/bphoto/T1wMWGah5uLjy2Yusu5zyA/o.jpg", "is_closed": false, "url": "https://www.yelp.com/biz/the-pottery-los-angeles-2?adjust_creative=sZ3yryoyE3Dcs3GsAvlcFA&utm_campaign=yelp_api_v3&utm_medium=api_v3_business_search&utm_source=sZ3yryoyE3Dcs3GsAvlcFA", "review_count": 5, "categories": [{"alias": "cannabiscollective", "title": "Cannabis Collective"}, {"alias": "cannabisdispensaries", "title": "Cannabis Dispensaries"}, {"alias": "cannabis_clinics", "title": "Cannabis Clinics"}], "rating": 4.0, "coordinates": {"latitude": 34.04502, "longitude": -118.34853}, "transactions": [], "price": "$$", "location": {"address1": "5042 Venice Blvd", "address2": null, "address3": "", "city": "Los Angeles", "zip_code": "90019", "country": "US", "state": "CA", "display_address": ["5042 Venice Blvd", "Los Angeles, CA 90019"]}, "phone": "+13234529833", "display_phone": "(323) 452-9833", "distance": 3106.8354792731116}, {"id": "7IwRootKC3uZJKPGjGt01Q", "alias": "canna-cabana-420-los-angeles-2", "name": "Canna Cabana 420", "image_url": "https://s3-media3.fl.yelpcdn.com/bphoto/W-icX3AG-_oP7nZmUzx0ew/o.jpg", "is_closed": false, "url": "https://www.yelp.com/biz/canna-cabana-420-los-angeles-2?adjust_creative=sZ3yryoyE3Dcs3GsAvlcFA&utm_campaign=yelp_api_v3&utm_medium=api_v3_business_search&utm_source=sZ3yryoyE3Dcs3GsAvlcFA", "review_count": 4, "categories": [{"alias": "cannabisdispensaries", "title": "Cannabis Dispensaries"}], "rating": 4.0, "coordinates": {"latitude": 34.03193, "longitude": -118.26439}, "transactions": [], "price": "$", "location": {"address1": "1813 S Main St", "address2": null, "address3": "", "city": "Los Angeles", "zip_code": "90015", "country": "US", "state": "CA", "display_address": ["1813 S Main St", "Los Angeles, CA 90015"]}, "phone": "+13107957804", "display_phone": "(310) 795-7804", "distance": 6215.7314983435}, {"id": "ITP808FTbztmjd5VX2liqQ", "alias": "downtown-natural-caregivers-los-angeles", "name": "Downtown Natural Caregivers", "image_url": "https://s3-media2.fl.yelpcdn.com/bphoto/Hzjm-GK3wRsYYENnIUuLFA/o.jpg", "is_closed": false, "url": "https://www.yelp.com/biz/downtown-natural-caregivers-los-angeles?adjust_creative=sZ3yryoyE3Dcs3GsAvlcFA&utm_campaign=yelp_api_v3&utm_medium=api_v3_business_search&utm_source=sZ3yryoyE3Dcs3GsAvlcFA", "review_count": 12, "categories": [{"alias": "cannabisdispensaries", "title": "Cannabis Dispensaries"}], "rating": 4.5, "coordinates": {"latitude": 34.0475767, "longitude": -118.2438226}, "transactions": [], "price": "$", "location": {"address1": "312 Wall St", "address2": "", "address3": "", "city": "Los Angeles", "zip_code": "90013", "country": "US", "state": "CA", "display_address": ["312 Wall St", "Los Angeles, CA 90013"]}, "phone": "+12136250301", "display_phone": "(213) 625-0301", "distance": 7312.986042802425}, {"id": "OpplF_sR_Ti6YtzhZGRQ4Q", "alias": "kushy-delivery-los-angeles-3", "name": "Kushy Delivery", "image_url": "https://s3-media4.fl.yelpcdn.com/bphoto/uWEsBDbyBgTcCbjwe290QQ/o.jpg", "is_closed": false, "url": "https://www.yelp.com/biz/kushy-delivery-los-angeles-3?adjust_creative=sZ3yryoyE3Dcs3GsAvlcFA&utm_campaign=yelp_api_v3&utm_medium=api_v3_business_search&utm_source=sZ3yryoyE3Dcs3GsAvlcFA", "review_count": 2, "categories": [{"alias": "cannabisdispensaries", "title": "Cannabis Dispensaries"}], "rating": 5.0, "coordinates": {"latitude": 34.0029134, "longitude": -118.4156558}, "transactions": [], "location": {"address1": "", "address2": null, "address3": "", "city": "Los Angeles", "zip_code": "90066", "country": "US", "state": "CA", "display_address": ["Los Angeles, CA 90066"]}, "phone": "+18556958749", "display_phone": "(855) 695-8749", "distance": 10864.631346050868}, {"id": "9VjPd90gl7kRixQSYe_DHw", "alias": "bmac-los-angeles-2", "name": "BMAC", "image_url": "https://s3-media2.fl.yelpcdn.com/bphoto/eg-Fb7-v0nOg84LXkjZB6A/o.jpg", "is_closed": false, "url": "https://www.yelp.com/biz/bmac-los-angeles-2?adjust_creative=sZ3yryoyE3Dcs3GsAvlcFA&utm_campaign=yelp_api_v3&utm_medium=api_v3_business_search&utm_source=sZ3yryoyE3Dcs3GsAvlcFA", "review_count": 7, "categories": [{"alias": "cannabisdispensaries", "title": "Cannabis Dispensaries"}], "rating": 3.0, "coordinates": {"latitude": 34.0734871339028, "longitude": -118.216198776151}, "transactions": [], "price": "$", "location": {"address1": "2418 N Broadway", "address2": null, "address3": "", "city": "Los Angeles", "zip_code": "90031", "country": "US", "state": "CA", "display_address": ["2418 N Broadway", "Los Angeles, CA 90031"]}, "phone": "+12133599848", "display_phone": "(213) 359-9848", "distance": 9778.343472072454}, {"id": "SqDszJxmeGCETK97RhvX7w", "alias": "project-cannabis-los-angeles", "name": "Project Cannabis", "image_url": "", "is_closed": false, "url": "https://www.yelp.com/biz/project-cannabis-los-angeles?adjust_creative=sZ3yryoyE3Dcs3GsAvlcFA&utm_campaign=yelp_api_v3&utm_medium=api_v3_business_search&utm_source=sZ3yryoyE3Dcs3GsAvlcFA", "review_count": 2, "categories": [{"alias": "cannabisdispensaries", "title": "Cannabis Dispensaries"}], "rating": 5.0, "coordinates": {"latitude": 34.0253736995806, "longitude": -118.241701542896}, "transactions": [], "location": {"address1": "1555 Newton St", "address2": "", "address3": null, "city": "Los Angeles", "zip_code": "90021", "country": "US", "state": "CA", "display_address": ["1555 Newton St", "Los Angeles, CA 90021"]}, "phone": "", "display_phone": "", "distance": 8373.373431749651}, {"id": "ww_o-TOBTS5WsFz5sCYiCA", "alias": "trippy-mellow-beverly-hills", "name": "Trippy Mellow", "image_url": "https://s3-media3.fl.yelpcdn.com/bphoto/v4WDHmRXDwDqCQpfRjjJ_A/o.jpg", "is_closed": false, "url": "https://www.yelp.com/biz/trippy-mellow-beverly-hills?adjust_creative=sZ3yryoyE3Dcs3GsAvlcFA&utm_campaign=yelp_api_v3&utm_medium=api_v3_business_search&utm_source=sZ3yryoyE3Dcs3GsAvlcFA", "review_count": 2, "categories": [{"alias": "cannabis_clinics", "title": "Cannabis Clinics"}, {"alias": "cannabisdispensaries", "title": "Cannabis Dispensaries"}, {"alias": "cannabisreferrals", "title": "Medical Cannabis Referrals"}], "rating": 4.5, "coordinates": {"latitude": 34.0617109, "longitude": -118.319307839063}, "transactions": [], "price": "$$", "location": {"address1": "", "address2": "", "address3": "", "city": "Beverly Hills", "zip_code": "90212", "country": "US", "state": "CA", "display_address": ["Beverly Hills, CA 90212"]}, "phone": "+18188151339", "display_phone": "(818) 815-1339", "distance": 191.41563513600389}, {"id": "sj-wd7dNfCGhqSwSCq2nmA", "alias": "lala-land-collective-los-angeles", "name": "LaLa Land Collective", "image_url": "https://s3-media3.fl.yelpcdn.com/bphoto/iJw2foAhS6rb3uQbArSo_g/o.jpg", "is_closed": false, "url": "https://www.yelp.com/biz/lala-land-collective-los-angeles?adjust_creative=sZ3yryoyE3Dcs3GsAvlcFA&utm_campaign=yelp_api_v3&utm_medium=api_v3_business_search&utm_source=sZ3yryoyE3Dcs3GsAvlcFA", "review_count": 8, "categories": [{"alias": "cannabisdispensaries", "title": "Cannabis Dispensaries"}], "rating": 3.0, "coordinates": {"latitude": 33.936661, "longitude": -118.273645089619}, "transactions": [], "price": "$$", "location": {"address1": "10924 S Main St", "address2": null, "address3": "", "city": "Los Angeles", "zip_code": "90061", "country": "US", "state": "CA", "display_address": ["10924 S Main St", "Los Angeles, CA 90061"]}, "phone": "+12135361420", "display_phone": "(213) 536-1420", "distance": 14571.74549344115}, {"id": "QWFG6U6uxHFkuPCtnMECmw", "alias": "deals-on-wheels-los-angeles-2", "name": "Deals On Wheels", "image_url": "https://s3-media1.fl.yelpcdn.com/bphoto/ZFJFRoahuG3IaKiN3KC2PA/o.jpg", "is_closed": false, "url": "https://www.yelp.com/biz/deals-on-wheels-los-angeles-2?adjust_creative=sZ3yryoyE3Dcs3GsAvlcFA&utm_campaign=yelp_api_v3&utm_medium=api_v3_business_search&utm_source=sZ3yryoyE3Dcs3GsAvlcFA", "review_count": 3, "categories": [{"alias": "cannabisdispensaries", "title": "Cannabis Dispensaries"}], "rating": 4.0, "coordinates": {"latitude": 34.1863564309187, "longitude": -118.370255641624}, "transactions": [], "price": "$", "location": {"address1": "6358 Vineland Ave", "address2": "Unit B", "address3": "", "city": "Los Angeles", "zip_code": "91606", "country": "US", "state": "CA", "display_address": ["6358 Vineland Ave", "Unit B", "Los Angeles, CA 91606"]}, "phone": "+18187477096", "display_phone": "(818) 747-7096", "distance": 14584.653174920659}, {"id": "cE-92uTvbjtlQCOb4uMI4A", "alias": "korner-town-los-angeles", "name": "Korner Town", "image_url": "https://s3-media2.fl.yelpcdn.com/bphoto/kBb25GPh5xH2OkZg49hKVA/o.jpg", "is_closed": false, "url": "https://www.yelp.com/biz/korner-town-los-angeles?adjust_creative=sZ3yryoyE3Dcs3GsAvlcFA&utm_campaign=yelp_api_v3&utm_medium=api_v3_business_search&utm_source=sZ3yryoyE3Dcs3GsAvlcFA", "review_count": 1, "categories": [{"alias": "cannabisdispensaries", "title": "Cannabis Dispensaries"}], "rating": 5.0, "coordinates": {"latitude": 34.0473449664072, "longitude": -118.287386795321}, "transactions": [], "location": {"address1": "2329 Pico Blvd", "address2": null, "address3": "", "city": "Los Angeles", "zip_code": "90006", "country": "US", "state": "CA", "display_address": ["2329 Pico Blvd", "Los Angeles, CA 90006"]}, "phone": "+13239152275", "display_phone": "(323) 915-2275", "distance": 3491.139670483171}, {"id": "ytW5tv0Av_TtB6i7NcwiXw", "alias": "kushology-los-angeles", "name": "Kushology", "image_url": "https://s3-media1.fl.yelpcdn.com/bphoto/4gHEQXeWq8KGmQHXc-LBDQ/o.jpg", "is_closed": false, "url": "https://www.yelp.com/biz/kushology-los-angeles?adjust_creative=sZ3yryoyE3Dcs3GsAvlcFA&utm_campaign=yelp_api_v3&utm_medium=api_v3_business_search&utm_source=sZ3yryoyE3Dcs3GsAvlcFA", "review_count": 2, "categories": [{"alias": "cannabisdispensaries", "title": "Cannabis Dispensaries"}, {"alias": "cannabiscollective", "title": "Cannabis Collective"}], "rating": 4.5, "coordinates": {"latitude": 33.9994224826034, "longitude": -118.300244238465}, "transactions": [], "location": {"address1": "4817 Normandie Ave Los Angeles California 90037", "address2": null, "address3": "", "city": "Los Angeles", "zip_code": "90037", "country": "US", "state": "CA", "display_address": ["4817 Normandie Ave Los Angeles California 90037", "Los Angeles, CA 90037"]}, "phone": "+13233837566", "display_phone": "(323) 383-7566", "distance": 7163.574806107647}, {"id": "Q-kG7aZ9HneaRc9B3Dx-mA", "alias": "mai-collective-los-angeles", "name": "Mai Collective", "image_url": "https://s3-media1.fl.yelpcdn.com/bphoto/tqUqAxIREObpkdX6fwzjtA/o.jpg", "is_closed": false, "url": "https://www.yelp.com/biz/mai-collective-los-angeles?adjust_creative=sZ3yryoyE3Dcs3GsAvlcFA&utm_campaign=yelp_api_v3&utm_medium=api_v3_business_search&utm_source=sZ3yryoyE3Dcs3GsAvlcFA", "review_count": 1, "categories": [{"alias": "cannabisdispensaries", "title": "Cannabis Dispensaries"}, {"alias": "cannabiscollective", "title": "Cannabis Collective"}], "rating": 5.0, "coordinates": {"latitude": 34.0401396, "longitude": -118.3082272}, "transactions": [], "location": {"address1": "6112 S St Andrews Pl", "address2": null, "address3": "", "city": "Los Angeles", "zip_code": "90047", "country": "US", "state": "CA", "display_address": ["6112 S St Andrews Pl", "Los Angeles, CA 90047"]}, "phone": "+13239206932", "display_phone": "(323) 920-6932", "distance": 2675.3145855136536}, {"id": "TaOwV8IJwSQA4k9h9kCTiA", "alias": "2high2die-long-beach-2", "name": "2HIGH2DIE", "image_url": "https://s3-media3.fl.yelpcdn.com/bphoto/lDcfgb-JczyxNuJdCo_fsw/o.jpg", "is_closed": false, "url": "https://www.yelp.com/biz/2high2die-long-beach-2?adjust_creative=sZ3yryoyE3Dcs3GsAvlcFA&utm_campaign=yelp_api_v3&utm_medium=api_v3_business_search&utm_source=sZ3yryoyE3Dcs3GsAvlcFA", "review_count": 2, "categories": [{"alias": "cannabisdispensaries", "title": "Cannabis Dispensaries"}], "rating": 5.0, "coordinates": {"latitude": 33.7659797668457, "longitude": -118.186027526855}, "transactions": [], "price": "$$$", "location": {"address1": null, "address2": null, "address3": "", "city": "Long Beach", "zip_code": "90802", "country": "US", "state": "CA", "display_address": ["Long Beach, CA 90802"]}, "phone": "+12145570156", "display_phone": "(214) 557-0156", "distance": 37475.047135370995}, {"id": "w5aKMKjZpWcAHtUPrNIXlA", "alias": "kaz-collective-los-angeles", "name": "Kaz Collective", "image_url": "https://s3-media1.fl.yelpcdn.com/bphoto/rtRksMOQQI4TD-HRAAqm_A/o.jpg", "is_closed": false, "url": "https://www.yelp.com/biz/kaz-collective-los-angeles?adjust_creative=sZ3yryoyE3Dcs3GsAvlcFA&utm_campaign=yelp_api_v3&utm_medium=api_v3_business_search&utm_source=sZ3yryoyE3Dcs3GsAvlcFA", "review_count": 1, "categories": [{"alias": "cannabisdispensaries", "title": "Cannabis Dispensaries"}], "rating": 5.0, "coordinates": {"latitude": 34.05398, "longitude": -118.320304}, "transactions": [], "price": "$$", "location": {"address1": "3923 W Olympic Blvd", "address2": "", "address3": null, "city": "Los Angeles", "zip_code": "90019", "country": "US", "state": "CA", "display_address": ["3923 W Olympic Blvd", "Los Angeles, CA 90019"]}, "phone": "+12136630251", "display_phone": "(213) 663-0251", "distance": 851.9345782937033}, {"id": "zpmy6Hwr1JLkfqfOGr6IiA", "alias": "downtown-patient-group-dtpg-los-angeles-3", "name": "Downtown Patient Group - DTPG", "image_url": "https://s3-media4.fl.yelpcdn.com/bphoto/FTgbxajVf63C-pA3knkdgQ/o.jpg", "is_closed": false, "url": "https://www.yelp.com/biz/downtown-patient-group-dtpg-los-angeles-3?adjust_creative=sZ3yryoyE3Dcs3GsAvlcFA&utm_campaign=yelp_api_v3&utm_medium=api_v3_business_search&utm_source=sZ3yryoyE3Dcs3GsAvlcFA", "review_count": 5, "categories": [{"alias": "cannabis_clinics", "title": "Cannabis Clinics"}, {"alias": "cannabisdispensaries", "title": "Cannabis Dispensaries"}], "rating": 3.0, "coordinates": {"latitude": 34.02818, "longitude": -118.23193}, "transactions": [], "location": {"address1": "1320 Mateo St", "address2": "", "address3": "", "city": "Los Angeles", "zip_code": "90021", "country": "US", "state": "CA", "display_address": ["1320 Mateo St", "Los Angeles, CA 90021"]}, "phone": "+12137473386", "display_phone": "(213) 747-3386", "distance": 9033.873688243208}, {"id": "7_NsMaxsGLYEL2qQzY_5sg", "alias": "health-stop-los-angeles", "name": "Health Stop", "image_url": "https://s3-media2.fl.yelpcdn.com/bphoto/YHb5Ahh1lirwKUl9m8_LDA/o.jpg", "is_closed": false, "url": "https://www.yelp.com/biz/health-stop-los-angeles?adjust_creative=sZ3yryoyE3Dcs3GsAvlcFA&utm_campaign=yelp_api_v3&utm_medium=api_v3_business_search&utm_source=sZ3yryoyE3Dcs3GsAvlcFA", "review_count": 1, "categories": [{"alias": "cannabisreferrals", "title": "Medical Cannabis Referrals"}, {"alias": "cannabisdispensaries", "title": "Cannabis Dispensaries"}, {"alias": "cannabis_clinics", "title": "Cannabis Clinics"}], "rating": 5.0, "coordinates": {"latitude": 34.0767857007629, "longitude": -118.287211954594}, "transactions": [], "price": "$$", "location": {"address1": "313 N Virgil", "address2": "", "address3": "", "city": "Los Angeles", "zip_code": "90004", "country": "US", "state": "CA", "display_address": ["313 N Virgil", "Los Angeles, CA 90004"]}, "phone": "+13234540452", "display_phone": "(323) 454-0452", "distance": 3572.175511768374}, {"id": "3kAe78EwCoim5gsKAAnI_w", "alias": "enjoyable-cbd-los-angeles", "name": "Enjoyable CBD", "image_url": "", "is_closed": false, "url": "https://www.yelp.com/biz/enjoyable-cbd-los-angeles?adjust_creative=sZ3yryoyE3Dcs3GsAvlcFA&utm_campaign=yelp_api_v3&utm_medium=api_v3_business_search&utm_source=sZ3yryoyE3Dcs3GsAvlcFA", "review_count": 1, "categories": [{"alias": "cannabisdispensaries", "title": "Cannabis Dispensaries"}, {"alias": "cannabis_clinics", "title": "Cannabis Clinics"}, {"alias": "cannabisreferrals", "title": "Medical Cannabis Referrals"}], "rating": 5.0, "coordinates": {"latitude": 34.09934, "longitude": -118.32718}, "transactions": [], "location": {"address1": "1555 Vine St", "address2": "", "address3": null, "city": "Los Angeles", "zip_code": "90028", "country": "US", "state": "CA", "display_address": ["1555 Vine St", "Los Angeles, CA 90028"]}, "phone": "+15128046269", "display_phone": "(512) 804-6269", "distance": 4206.318653093684}, {"id": "Sl_6k9wD49kaOL8_DCP4Ww", "alias": "cookies-melrose-los-angeles-2", "name": "Cookies Melrose", "image_url": "https://s3-media4.fl.yelpcdn.com/bphoto/jmEOR-AqAhEeNDrdlHZNKA/o.jpg", "is_closed": false, "url": "https://www.yelp.com/biz/cookies-melrose-los-angeles-2?adjust_creative=sZ3yryoyE3Dcs3GsAvlcFA&utm_campaign=yelp_api_v3&utm_medium=api_v3_business_search&utm_source=sZ3yryoyE3Dcs3GsAvlcFA", "review_count": 9, "categories": [{"alias": "cannabisdispensaries", "title": "Cannabis Dispensaries"}], "rating": 2.0, "coordinates": {"latitude": 34.08336, "longitude": -118.37237}, "transactions": [], "location": {"address1": "8360 Melrose Ave", "address2": "", "address3": null, "city": "Los Angeles", "zip_code": "90069", "country": "US", "state": "CA", "display_address": ["8360 Melrose Ave", "Los Angeles, CA 90069"]}, "phone": "+13234334743", "display_phone": "(323) 433-4743", "distance": 5283.606451890663}, {"id": "nXhlTlXgxH4iW8HgNMpCMg", "alias": "kushland-los-angeles-2", "name": "Kushland", "image_url": "https://s3-media3.fl.yelpcdn.com/bphoto/3U6qRXMLYF5gp5euxD3vIg/o.jpg", "is_closed": false, "url": "https://www.yelp.com/biz/kushland-los-angeles-2?adjust_creative=sZ3yryoyE3Dcs3GsAvlcFA&utm_campaign=yelp_api_v3&utm_medium=api_v3_business_search&utm_source=sZ3yryoyE3Dcs3GsAvlcFA", "review_count": 5, "categories": [{"alias": "cannabiscollective", "title": "Cannabis Collective"}, {"alias": "cannabisdispensaries", "title": "Cannabis Dispensaries"}], "rating": 3.0, "coordinates": {"latitude": 33.961618, "longitude": -118.278568}, "transactions": [], "price": "$$", "location": {"address1": "8459 S Broadway", "address2": null, "address3": "", "city": "Los Angeles", "zip_code": "90003", "country": "US", "state": "CA", "display_address": ["8459 S Broadway", "Los Angeles, CA 90003"]}, "phone": "+14242424469", "display_phone": "(424) 242-4469", "distance": 11795.948411260813}, {"id": "8gXUYQ9DhBOEFQhDyQs6YA", "alias": "semilla-hrc-los-angeles-3", "name": "Semilla_HRC", "image_url": "https://s3-media2.fl.yelpcdn.com/bphoto/AzSGQ3_EgP7ia-6cDjt9GQ/o.jpg", "is_closed": false, "url": "https://www.yelp.com/biz/semilla-hrc-los-angeles-3?adjust_creative=sZ3yryoyE3Dcs3GsAvlcFA&utm_campaign=yelp_api_v3&utm_medium=api_v3_business_search&utm_source=sZ3yryoyE3Dcs3GsAvlcFA", "review_count": 6, "categories": [{"alias": "cannabisdispensaries", "title": "Cannabis Dispensaries"}, {"alias": "cannabiscollective", "title": "Cannabis Collective"}], "rating": 5.0, "coordinates": {"latitude": 34.2093599, "longitude": -118.36264}, "transactions": [], "location": {"address1": "7648 Clybourn Ave", "address2": "Unit A", "address3": "", "city": "Los Angeles", "zip_code": "91352", "country": "US", "state": "CA", "display_address": ["7648 Clybourn Ave", "Unit A", "Los Angeles, CA 91352"]}, "phone": "+17472232151", "display_phone": "(747) 223-2151", "distance": 16858.50432060969}, {"id": "NqqMew4ZTKuuL1RlaY1BHQ", "alias": "original-green-bear-los-angeles-2", "name": "Original Green Bear", "image_url": "https://s3-media1.fl.yelpcdn.com/bphoto/Yzu-s1Kirg9Qy6bwbmQLFg/o.jpg", "is_closed": false, "url": "https://www.yelp.com/biz/original-green-bear-los-angeles-2?adjust_creative=sZ3yryoyE3Dcs3GsAvlcFA&utm_campaign=yelp_api_v3&utm_medium=api_v3_business_search&utm_source=sZ3yryoyE3Dcs3GsAvlcFA", "review_count": 1, "categories": [{"alias": "cannabisdispensaries", "title": "Cannabis Dispensaries"}, {"alias": "cannabis_clinics", "title": "Cannabis Clinics"}], "rating": 5.0, "coordinates": {"latitude": 34.03122, "longitude": -118.25006}, "transactions": [], "location": {"address1": "1226 Stanford Ave", "address2": "", "address3": null, "city": "Los Angeles", "zip_code": "90021", "country": "US", "state": "CA", "display_address": ["1226 Stanford Ave", "Los Angeles, CA 90021"]}, "phone": "", "display_phone": "", "distance": 7388.010293174981}, {"id": "68DDlLUmgy2cuj4Q_6_Z7w", "alias": "medex-los-angeles-2", "name": "MedEX", "image_url": "https://s3-media4.fl.yelpcdn.com/bphoto/PFfQb7nOwsm5x9S2JgVRWw/o.jpg", "is_closed": false, "url": "https://www.yelp.com/biz/medex-los-angeles-2?adjust_creative=sZ3yryoyE3Dcs3GsAvlcFA&utm_campaign=yelp_api_v3&utm_medium=api_v3_business_search&utm_source=sZ3yryoyE3Dcs3GsAvlcFA", "review_count": 1, "categories": [{"alias": "cannabisdispensaries", "title": "Cannabis Dispensaries"}], "rating": 5.0, "coordinates": {"latitude": 34.0207762, "longitude": -118.22059}, "transactions": [], "location": {"address1": "", "address2": "", "address3": "", "city": "Los Angeles", "zip_code": "90023", "country": "US", "state": "CA", "display_address": ["Los Angeles, CA 90023"]}, "phone": "+18184529580", "display_phone": "(818) 452-9580", "distance": 10336.390882614754}, {"id": "1F8gP5U1gNOmoC8h00w3ag", "alias": "cali-releaf-church-of-mien-tao-alhambra", "name": "Cali Releaf Church of Mien Tao", "image_url": "https://s3-media4.fl.yelpcdn.com/bphoto/J23pTUzxVyz6DVn1OjzABA/o.jpg", "is_closed": false, "url": "https://www.yelp.com/biz/cali-releaf-church-of-mien-tao-alhambra?adjust_creative=sZ3yryoyE3Dcs3GsAvlcFA&utm_campaign=yelp_api_v3&utm_medium=api_v3_business_search&utm_source=sZ3yryoyE3Dcs3GsAvlcFA", "review_count": 17, "categories": [{"alias": "cannabisdispensaries", "title": "Cannabis Dispensaries"}], "rating": 4.0, "coordinates": {"latitude": 34.09013, "longitude": -118.12377}, "transactions": [], "location": {"address1": "425 S Garfield Ave", "address2": "", "address3": null, "city": "Alhambra", "zip_code": "91801", "country": "US", "state": "CA", "display_address": ["425 S Garfield Ave", "Alhambra, CA 91801"]}, "phone": "+16264180561", "display_phone": "(626) 418-0561", "distance": 18485.09430057205}, {"id": "E6ZbTnlTxl00mHapN4WuLQ", "alias": "420-health-care-deliveries-los-angeles", "name": "420 Health Care Deliveries", "image_url": "https://s3-media2.fl.yelpcdn.com/bphoto/xCESIHW0ouX5BCvnpxF_eQ/o.jpg", "is_closed": false, "url": "https://www.yelp.com/biz/420-health-care-deliveries-los-angeles?adjust_creative=sZ3yryoyE3Dcs3GsAvlcFA&utm_campaign=yelp_api_v3&utm_medium=api_v3_business_search&utm_source=sZ3yryoyE3Dcs3GsAvlcFA", "review_count": 1, "categories": [{"alias": "cannabisdispensaries", "title": "Cannabis Dispensaries"}], "rating": 5.0, "coordinates": {"latitude": 34.02804, "longitude": -118.21383}, "transactions": [], "location": {"address1": "", "address2": null, "address3": "", "city": "Los Angeles", "zip_code": "90023", "country": "US", "state": "CA", "display_address": ["Los Angeles, CA 90023"]}, "phone": "+16265020658", "display_phone": "(626) 502-0658", "distance": 11998.586570964499}, {"id": "48DAWbxRG5izrA6M0_xDEg", "alias": "gas-stop-los-angeles", "name": "Gas Stop", "image_url": "https://s3-media2.fl.yelpcdn.com/bphoto/bJbu7DD20ankwnOBDE1rWA/o.jpg", "is_closed": false, "url": "https://www.yelp.com/biz/gas-stop-los-angeles?adjust_creative=sZ3yryoyE3Dcs3GsAvlcFA&utm_campaign=yelp_api_v3&utm_medium=api_v3_business_search&utm_source=sZ3yryoyE3Dcs3GsAvlcFA", "review_count": 1, "categories": [{"alias": "cannabisdispensaries", "title": "Cannabis Dispensaries"}], "rating": 5.0, "coordinates": {"latitude": 33.94402, "longitude": -118.28226}, "transactions": [], "location": {"address1": "10122 S Figueroa St", "address2": "Ste F", "address3": "", "city": "Los Angeles", "zip_code": "90003", "country": "US", "state": "CA", "display_address": ["10122 S Figueroa St", "Ste F", "Los Angeles, CA 90003"]}, "phone": "+19496671401", "display_phone": "(949) 667-1401", "distance": 13580.862175536875}, {"id": "MVLFARZKlq7nwlFoWByhkQ", "alias": "thirdeye-wellness-los-angeles", "name": "ThirdEye Wellness", "image_url": "https://s3-media2.fl.yelpcdn.com/bphoto/u_9uzTVMhI5UlOyf17Osxg/o.jpg", "is_closed": false, "url": "https://www.yelp.com/biz/thirdeye-wellness-los-angeles?adjust_creative=sZ3yryoyE3Dcs3GsAvlcFA&utm_campaign=yelp_api_v3&utm_medium=api_v3_business_search&utm_source=sZ3yryoyE3Dcs3GsAvlcFA", "review_count": 9, "categories": [{"alias": "cannabisdispensaries", "title": "Cannabis Dispensaries"}], "rating": 4.0, "coordinates": {"latitude": 33.99256, "longitude": -118.4233}, "transactions": [], "price": "$$", "location": {"address1": "4509 S Centinela Ave", "address2": null, "address3": "", "city": "Los Angeles", "zip_code": "90066", "country": "US", "state": "CA", "display_address": ["4509 S Centinela Ave", "Los Angeles, CA 90066"]}, "phone": "+13108233505", "display_phone": "(310) 823-3505", "distance": 12133.23890366959}, {"id": "iiVRgCINGxdD8L9iU0QPrQ", "alias": "metro-green-meds-los-angeles", "name": "Metro Green Meds", "image_url": "https://s3-media1.fl.yelpcdn.com/bphoto/bt2d_rlonPC7hdXQLAO2vw/o.jpg", "is_closed": false, "url": "https://www.yelp.com/biz/metro-green-meds-los-angeles?adjust_creative=sZ3yryoyE3Dcs3GsAvlcFA&utm_campaign=yelp_api_v3&utm_medium=api_v3_business_search&utm_source=sZ3yryoyE3Dcs3GsAvlcFA", "review_count": 4, "categories": [{"alias": "cannabisdispensaries", "title": "Cannabis Dispensaries"}], "rating": 3.0, "coordinates": {"latitude": 34.032309, "longitude": -118.261788}, "transactions": [], "price": "$", "location": {"address1": "1616 S Los Angeles St", "address2": null, "address3": "", "city": "Los Angeles", "zip_code": "90015", "country": "US", "state": "CA", "display_address": ["1616 S Los Angeles St", "Los Angeles, CA 90015"]}, "phone": "+13102618827", "display_phone": "(310) 261-8827", "distance": 6383.257165473504}, {"id": "v3LU3pJvj33XRZeOPBwASw", "alias": "leaf-and-lion-long-beach", "name": "Leaf and Lion", "image_url": "https://s3-media2.fl.yelpcdn.com/bphoto/P8pFws4H-zkEeT5VSy_hFg/o.jpg", "is_closed": false, "url": "https://www.yelp.com/biz/leaf-and-lion-long-beach?adjust_creative=sZ3yryoyE3Dcs3GsAvlcFA&utm_campaign=yelp_api_v3&utm_medium=api_v3_business_search&utm_source=sZ3yryoyE3Dcs3GsAvlcFA", "review_count": 5, "categories": [{"alias": "cannabisdispensaries", "title": "Cannabis Dispensaries"}], "rating": 3.0, "coordinates": {"latitude": 33.88154, "longitude": -118.16254}, "transactions": [], "location": {"address1": "6978 Stanley Ave", "address2": null, "address3": "", "city": "Long Beach", "zip_code": "90805", "country": "US", "state": "CA", "display_address": ["6978 Stanley Ave", "Long Beach, CA 90805"]}, "phone": "+15625430102", "display_phone": "(562) 543-0102", "distance": 24806.051156532267}, {"id": "-O-dXooNqa8zYByEVAnrpQ", "alias": "best-of-buddha-whittier-whittier", "name": "Best of Buddha Whittier", "image_url": "https://s3-media4.fl.yelpcdn.com/bphoto/QnPmZ5KKwqRw19UlFpCitg/o.jpg", "is_closed": false, "url": "https://www.yelp.com/biz/best-of-buddha-whittier-whittier?adjust_creative=sZ3yryoyE3Dcs3GsAvlcFA&utm_campaign=yelp_api_v3&utm_medium=api_v3_business_search&utm_source=sZ3yryoyE3Dcs3GsAvlcFA", "review_count": 5, "categories": [{"alias": "cannabis_clinics", "title": "Cannabis Clinics"}, {"alias": "cannabisdispensaries", "title": "Cannabis Dispensaries"}], "rating": 3.5, "coordinates": {"latitude": 33.97241, "longitude": -118.07091}, "transactions": [], "location": {"address1": "7923 Duchess Dr", "address2": null, "address3": "", "city": "Whittier", "zip_code": "90606", "country": "US", "state": "CA", "display_address": ["7923 Duchess Dr", "Whittier, CA 90606"]}, "phone": "+17146162771", "display_phone": "(714) 616-2771", "distance": 25124.195450874126}, {"id": "Uy-CGf6Ed1myyWyhIXu_sA", "alias": "metro-bloomin-los-angeles", "name": "Metro Bloomin", "image_url": "https://s3-media1.fl.yelpcdn.com/bphoto/Z_OIViX7UHa2FhVRNzxBeg/o.jpg", "is_closed": false, "url": "https://www.yelp.com/biz/metro-bloomin-los-angeles?adjust_creative=sZ3yryoyE3Dcs3GsAvlcFA&utm_campaign=yelp_api_v3&utm_medium=api_v3_business_search&utm_source=sZ3yryoyE3Dcs3GsAvlcFA", "review_count": 2, "categories": [{"alias": "cannabisdispensaries", "title": "Cannabis Dispensaries"}], "rating": 3.0, "coordinates": {"latitude": 34.04582, "longitude": -118.2606}, "transactions": [], "location": {"address1": "645 W 9th st", "address2": null, "address3": "", "city": "Los Angeles", "zip_code": "90012", "country": "US", "state": "CA", "display_address": ["645 W 9th st", "Los Angeles, CA 90012"]}, "phone": "+16264205330", "display_phone": "(626) 420-5330", "distance": 5869.035591231919}, {"id": "lEBYL1sw8VNPpthlLUFtdA", "alias": "mind-kontrol-delivery-service-downtown-los-angeles", "name": "Mind Kontrol Delivery Service", "image_url": "https://s3-media1.fl.yelpcdn.com/bphoto/M24ksA3PLNr1BPeB2BKg3Q/o.jpg", "is_closed": false, "url": "https://www.yelp.com/biz/mind-kontrol-delivery-service-downtown-los-angeles?adjust_creative=sZ3yryoyE3Dcs3GsAvlcFA&utm_campaign=yelp_api_v3&utm_medium=api_v3_business_search&utm_source=sZ3yryoyE3Dcs3GsAvlcFA", "review_count": 2, "categories": [{"alias": "cannabisdispensaries", "title": "Cannabis Dispensaries"}], "rating": 5.0, "coordinates": {"latitude": 34.0426712036133, "longitude": -118.250885009766}, "transactions": [], "location": {"address1": null, "address2": null, "address3": "", "city": "Downtown Los Angeles", "zip_code": "90014", "country": "US", "state": "CA", "display_address": ["Downtown Los Angeles, CA 90014"]}, "phone": "+14246461490", "display_phone": "(424) 646-1490", "distance": 6707.647988501463}, {"id": "I18BwSsyLUIPxp84Jjp_gA", "alias": "dtla-garden-los-angeles-2", "name": "DTLA Garden", "image_url": "https://s3-media2.fl.yelpcdn.com/bphoto/WeeiBh9Si9pJSoqy8yFBrA/o.jpg", "is_closed": false, "url": "https://www.yelp.com/biz/dtla-garden-los-angeles-2?adjust_creative=sZ3yryoyE3Dcs3GsAvlcFA&utm_campaign=yelp_api_v3&utm_medium=api_v3_business_search&utm_source=sZ3yryoyE3Dcs3GsAvlcFA", "review_count": 2, "categories": [{"alias": "cannabisdispensaries", "title": "Cannabis Dispensaries"}], "rating": 3.0, "coordinates": {"latitude": 34.0358536, "longitude": -118.2548773}, "transactions": [], "location": {"address1": "1125  Wall St", "address2": null, "address3": "", "city": "Los Angeles", "zip_code": "90015", "country": "US", "state": "CA", "display_address": ["1125  Wall St", "Los Angeles, CA 90015"]}, "phone": "+12138358377", "display_phone": "(213) 835-8377", "distance": 6756.3487843996}, {"id": "IWiqvJwvBgwQAhN3rwRWmA", "alias": "vapeur-terp-sylmar", "name": "Vapeur Terp", "image_url": "https://s3-media1.fl.yelpcdn.com/bphoto/6r4eakLjjQCmhoQ402yojA/o.jpg", "is_closed": false, "url": "https://www.yelp.com/biz/vapeur-terp-sylmar?adjust_creative=sZ3yryoyE3Dcs3GsAvlcFA&utm_campaign=yelp_api_v3&utm_medium=api_v3_business_search&utm_source=sZ3yryoyE3Dcs3GsAvlcFA", "review_count": 1, "categories": [{"alias": "vapeshops", "title": "Vape Shops"}, {"alias": "headshops", "title": "Head Shops"}, {"alias": "cannabisdispensaries", "title": "Cannabis Dispensaries"}], "rating": 5.0, "coordinates": {"latitude": 34.2967177, "longitude": -118.4132981}, "transactions": [], "location": {"address1": "12473 Gladstone Ave", "address2": "Unit S", "address3": "", "city": "Sylmar", "zip_code": "91342", "country": "US", "state": "CA", "display_address": ["12473 Gladstone Ave", "Unit S", "Sylmar, CA 91342"]}, "phone": "+18444202278", "display_phone": "(844) 420-2278", "distance": 27478.30569617149}, {"id": "E_JNBUTOEq4TJptrNbW5XA", "alias": "og-bros-los-angeles", "name": "OG Bros", "image_url": "https://s3-media2.fl.yelpcdn.com/bphoto/wKtqNwwwLt83JSzk6xKHvA/o.jpg", "is_closed": false, "url": "https://www.yelp.com/biz/og-bros-los-angeles?adjust_creative=sZ3yryoyE3Dcs3GsAvlcFA&utm_campaign=yelp_api_v3&utm_medium=api_v3_business_search&utm_source=sZ3yryoyE3Dcs3GsAvlcFA", "review_count": 4, "categories": [{"alias": "cannabisdispensaries", "title": "Cannabis Dispensaries"}], "rating": 3.0, "coordinates": {"latitude": 34.227342, "longitude": -118.433116}, "transactions": [], "price": "$$", "location": {"address1": "8628 Woodman Ave", "address2": null, "address3": "", "city": "Los Angeles", "zip_code": "91331", "country": "US", "state": "CA", "display_address": ["8628 Woodman Ave", "Los Angeles, CA 91331"]}, "phone": "+17472367373", "display_phone": "(747) 236-7373", "distance": 21105.19739858159}, {"id": "oOSzssrItPtxaWXcWMbDgg", "alias": "the-cannabis-method-los-angeles-4", "name": "The Cannabis Method", "image_url": "https://s3-media4.fl.yelpcdn.com/bphoto/yEPOJg78yoMKy_uHZVASdw/o.jpg", "is_closed": false, "url": "https://www.yelp.com/biz/the-cannabis-method-los-angeles-4?adjust_creative=sZ3yryoyE3Dcs3GsAvlcFA&utm_campaign=yelp_api_v3&utm_medium=api_v3_business_search&utm_source=sZ3yryoyE3Dcs3GsAvlcFA", "review_count": 2, "categories": [{"alias": "cannabisdispensaries", "title": "Cannabis Dispensaries"}], "rating": 3.0, "coordinates": {"latitude": 34.03313, "longitude": -118.43872}, "transactions": [], "price": "$$", "location": {"address1": "", "address2": null, "address3": "", "city": "Los Angeles", "zip_code": "90064", "country": "US", "state": "CA", "display_address": ["Los Angeles, CA 90064"]}, "phone": "+13234507708", "display_phone": "(323) 450-7708", "distance": 9627.652417125457}, {"id": "3qTwnB-UeY5JJG3cvHOTrg", "alias": "lords-room-los-angeles", "name": "Lords Room", "image_url": "https://s3-media4.fl.yelpcdn.com/bphoto/TYfpbG79xlxG19KR9UPzeA/o.jpg", "is_closed": false, "url": "https://www.yelp.com/biz/lords-room-los-angeles?adjust_creative=sZ3yryoyE3Dcs3GsAvlcFA&utm_campaign=yelp_api_v3&utm_medium=api_v3_business_search&utm_source=sZ3yryoyE3Dcs3GsAvlcFA", "review_count": 3, "categories": [{"alias": "cannabisdispensaries", "title": "Cannabis Dispensaries"}], "rating": 2.5, "coordinates": {"latitude": 34.0506116857525, "longitude": -118.361776177311}, "transactions": [], "location": {"address1": "5669 W Pico Blvd", "address2": "", "address3": null, "city": "Los Angeles", "zip_code": "90019", "country": "US", "state": "CA", "display_address": ["5669 W Pico Blvd", "Los Angeles, CA 90019"]}, "phone": "+13235570974", "display_phone": "(323) 557-0974", "distance": 3916.479004831311}, {"id": "C_c-78iHl4SV0XzFY6Sm3A", "alias": "mai-fire-buds1-420-mmj-cannabis-marijuana-delivery-woodland-hill", "name": "Mai Fire Buds1 420 MMJ Cannabis Marijuana Delivery", "image_url": "https://s3-media1.fl.yelpcdn.com/bphoto/nFKlk53H-ZoJBNJRIe4aXw/o.jpg", "is_closed": false, "url": "https://www.yelp.com/biz/mai-fire-buds1-420-mmj-cannabis-marijuana-delivery-woodland-hill?adjust_creative=sZ3yryoyE3Dcs3GsAvlcFA&utm_campaign=yelp_api_v3&utm_medium=api_v3_business_search&utm_source=sZ3yryoyE3Dcs3GsAvlcFA", "review_count": 1, "categories": [{"alias": "cannabisdispensaries", "title": "Cannabis Dispensaries"}, {"alias": "couriers", "title": "Couriers & Delivery Services"}, {"alias": "cannabiscollective", "title": "Cannabis Collective"}], "rating": 5.0, "coordinates": {"latitude": 34.1848754882812, "longitude": -118.601669311523}, "transactions": [], "location": {"address1": null, "address2": null, "address3": "", "city": "woodland hill", "zip_code": "91367", "country": "US", "state": "CA", "display_address": ["woodland hill, CA 91367"]}, "phone": "+13234804949", "display_phone": "(323) 480-4949", "distance": 28534.682753546524}, {"id": "fVK8qy1Z5rtFD1zNOjg2-g", "alias": "24-7-marijuana-delivery-los-angeles-2", "name": "24 7 Marijuana Delivery", "image_url": "https://s3-media2.fl.yelpcdn.com/bphoto/Stxty-SSu23r2ZR8EcFz6A/o.jpg", "is_closed": false, "url": "https://www.yelp.com/biz/24-7-marijuana-delivery-los-angeles-2?adjust_creative=sZ3yryoyE3Dcs3GsAvlcFA&utm_campaign=yelp_api_v3&utm_medium=api_v3_business_search&utm_source=sZ3yryoyE3Dcs3GsAvlcFA", "review_count": 10, "categories": [{"alias": "cannabisdispensaries", "title": "Cannabis Dispensaries"}], "rating": 1.0, "coordinates": {"latitude": 34.0616751, "longitude": -118.2872401}, "transactions": [], "location": {"address1": "3010 Wilshire Blvd", "address2": "", "address3": "", "city": "Los Angeles", "zip_code": "90010", "country": "US", "state": "CA", "display_address": ["3010 Wilshire Blvd", "Los Angeles, CA 90010"]}, "phone": "+12134254668", "display_phone": "(213) 425-4668", "distance": 3170.156050134853}, {"id": "yB5eJMoAw1-Wlld-R3JckA", "alias": "nothing-but-fire-24-7-los-angeles-3", "name": "Nothing But Fire 24/7", "image_url": "https://s3-media2.fl.yelpcdn.com/bphoto/CLiEItjrT-XRJe5qvGU0tg/o.jpg", "is_closed": false, "url": "https://www.yelp.com/biz/nothing-but-fire-24-7-los-angeles-3?adjust_creative=sZ3yryoyE3Dcs3GsAvlcFA&utm_campaign=yelp_api_v3&utm_medium=api_v3_business_search&utm_source=sZ3yryoyE3Dcs3GsAvlcFA", "review_count": 3, "categories": [{"alias": "cannabisdispensaries", "title": "Cannabis Dispensaries"}], "rating": 2.5, "coordinates": {"latitude": 34.0261797, "longitude": -118.2766156}, "transactions": [], "price": "$$", "location": {"address1": "2800 S Figueroa St", "address2": null, "address3": "", "city": "Los Angeles", "zip_code": "90007", "country": "US", "state": "CA", "display_address": ["2800 S Figueroa St", "Los Angeles, CA 90007"]}, "phone": "+17028903473", "display_phone": "(702) 890-3473", "distance": 5702.163413233457}, {"id": "Qh3lV2SlZQWT3GjTB4lyrA", "alias": "831-organiks-los-angeles", "name": "831 Organiks", "image_url": "https://s3-media2.fl.yelpcdn.com/bphoto/O96RxfSIA-XZO3GDmpFmpA/o.jpg", "is_closed": false, "url": "https://www.yelp.com/biz/831-organiks-los-angeles?adjust_creative=sZ3yryoyE3Dcs3GsAvlcFA&utm_campaign=yelp_api_v3&utm_medium=api_v3_business_search&utm_source=sZ3yryoyE3Dcs3GsAvlcFA", "review_count": 3, "categories": [{"alias": "cannabisdispensaries", "title": "Cannabis Dispensaries"}], "rating": 2.5, "coordinates": {"latitude": 34.0489812, "longitude": -118.2589574}, "transactions": [], "location": {"address1": "811 W 7th St", "address2": null, "address3": "", "city": "Los Angeles", "zip_code": "90017", "country": "US", "state": "CA", "display_address": ["811 W 7th St", "Los Angeles, CA 90017"]}, "phone": "+18885751323", "display_phone": "(888) 575-1323", "distance": 5907.942024263474}, {"id": "QS2vhh97-_RDUGJuytYLNQ", "alias": "long-beach-wellness-center-long-beach-2", "name": "Long Beach Wellness Center", "image_url": "https://s3-media2.fl.yelpcdn.com/bphoto/YameItMf7MmPgqj-PtliUA/o.jpg", "is_closed": false, "url": "https://www.yelp.com/biz/long-beach-wellness-center-long-beach-2?adjust_creative=sZ3yryoyE3Dcs3GsAvlcFA&utm_campaign=yelp_api_v3&utm_medium=api_v3_business_search&utm_source=sZ3yryoyE3Dcs3GsAvlcFA", "review_count": 16, "categories": [{"alias": "cannabisdispensaries", "title": "Cannabis Dispensaries"}], "rating": 4.0, "coordinates": {"latitude": 33.8101, "longitude": -118.11693}, "transactions": [], "location": {"address1": "5900 E Spring St", "address2": "Ste C", "address3": "", "city": "Long Beach", "zip_code": "90815", "country": "US", "state": "CA", "display_address": ["5900 E Spring St", "Ste C", "Long Beach, CA 90815"]}, "phone": "+15629824078", "display_phone": "(562) 982-4078", "distance": 33729.22256812121}, {"id": "rahJ6K7wJeIHGX2ogsnsYg", "alias": "sfv-delivers-chatsworth", "name": "SFV Delivers", "image_url": "https://s3-media2.fl.yelpcdn.com/bphoto/7OAR_XbrrgLtLp7M3kRraA/o.jpg", "is_closed": false, "url": "https://www.yelp.com/biz/sfv-delivers-chatsworth?adjust_creative=sZ3yryoyE3Dcs3GsAvlcFA&utm_campaign=yelp_api_v3&utm_medium=api_v3_business_search&utm_source=sZ3yryoyE3Dcs3GsAvlcFA", "review_count": 1, "categories": [{"alias": "cannabisdispensaries", "title": "Cannabis Dispensaries"}], "rating": 5.0, "coordinates": {"latitude": 34.25344, "longitude": -118.60081}, "transactions": [], "location": {"address1": null, "address2": null, "address3": "", "city": "Chatsworth", "zip_code": "91311", "country": "US", "state": "CA", "display_address": ["Chatsworth, CA 91311"]}, "phone": "+17472467961", "display_phone": "(747) 246-7961", "distance": 35654.13455145696}, {"id": "2LrHLgS5anH4QUKBp6iWHg", "alias": "the-green-dot-marina-del-rey", "name": "The Green Dot", "image_url": "https://s3-media1.fl.yelpcdn.com/bphoto/PeC2QaelVVUMi_ieqPbYTw/o.jpg", "is_closed": false, "url": "https://www.yelp.com/biz/the-green-dot-marina-del-rey?adjust_creative=sZ3yryoyE3Dcs3GsAvlcFA&utm_campaign=yelp_api_v3&utm_medium=api_v3_business_search&utm_source=sZ3yryoyE3Dcs3GsAvlcFA", "review_count": 26, "categories": [{"alias": "cannabisdispensaries", "title": "Cannabis Dispensaries"}], "rating": 3.0, "coordinates": {"latitude": 33.98703, "longitude": -118.4441}, "transactions": [], "price": "$$", "location": {"address1": "4200 Lincoln Blvd", "address2": null, "address3": "", "city": "Marina Del Rey", "zip_code": "90292", "country": "US", "state": "CA", "display_address": ["4200 Lincoln Blvd", "Marina Del Rey, CA 90292"]}, "phone": "+13105788300", "display_phone": "(310) 578-8300", "distance": 14030.278314750261}, {"id": "PbLtOJs4e6EfZ_XcJKGI5A", "alias": "university-20-cap-los-angeles", "name": "UNIVERSITY 20 CAP", "image_url": "", "is_closed": false, "url": "https://www.yelp.com/biz/university-20-cap-los-angeles?adjust_creative=sZ3yryoyE3Dcs3GsAvlcFA&utm_campaign=yelp_api_v3&utm_medium=api_v3_business_search&utm_source=sZ3yryoyE3Dcs3GsAvlcFA", "review_count": 3, "categories": [{"alias": "cannabisdispensaries", "title": "Cannabis Dispensaries"}], "rating": 2.5, "coordinates": {"latitude": 34.02027, "longitude": -118.27578}, "transactions": [], "location": {"address1": "253 W Jefferson Blvd", "address2": "", "address3": null, "city": "Los Angeles", "zip_code": "90007", "country": "US", "state": "CA", "display_address": ["253 W Jefferson Blvd", "Los Angeles, CA 90007"]}, "phone": "+12137099304", "display_phone": "(213) 709-9304", "distance": 6228.503957268284}, {"id": "nxNGJmqHrChU-6ZgaG633g", "alias": "the-house-of-ounces-los-angeles", "name": "The House Of Ounces", "image_url": "https://s3-media3.fl.yelpcdn.com/bphoto/OOGlOP2Fp1dGwelEufwyoQ/o.jpg", "is_closed": false, "url": "https://www.yelp.com/biz/the-house-of-ounces-los-angeles?adjust_creative=sZ3yryoyE3Dcs3GsAvlcFA&utm_campaign=yelp_api_v3&utm_medium=api_v3_business_search&utm_source=sZ3yryoyE3Dcs3GsAvlcFA", "review_count": 6, "categories": [{"alias": "cannabisdispensaries", "title": "Cannabis Dispensaries"}], "rating": 1.5, "coordinates": {"latitude": 34.03864, "longitude": -118.26136}, "transactions": [], "location": {"address1": "", "address2": "", "address3": null, "city": "Los Angeles", "zip_code": "90015", "country": "US", "state": "CA", "display_address": ["Los Angeles, CA 90015"]}, "phone": "+12139855615", "display_phone": "(213) 985-5615", "distance": 5580.8995529348895}, {"id": "H3IqezbsU56ZOWXFho05sg", "alias": "nugmen-cannabis-delivery-san-fernando", "name": "Nugmen Cannabis Delivery", "image_url": "https://s3-media1.fl.yelpcdn.com/bphoto/ByiCtP4nWAI6u1amAswwYg/o.jpg", "is_closed": false, "url": "https://www.yelp.com/biz/nugmen-cannabis-delivery-san-fernando?adjust_creative=sZ3yryoyE3Dcs3GsAvlcFA&utm_campaign=yelp_api_v3&utm_medium=api_v3_business_search&utm_source=sZ3yryoyE3Dcs3GsAvlcFA", "review_count": 3, "categories": [{"alias": "cannabisdispensaries", "title": "Cannabis Dispensaries"}], "rating": 5.0, "coordinates": {"latitude": 34.2839508056641, "longitude": -118.438591003418}, "transactions": [], "location": {"address1": "", "address2": null, "address3": "", "city": "San Fernando", "zip_code": "91344", "country": "US", "state": "CA", "display_address": ["San Fernando, CA 91344"]}, "phone": "+14243828289", "display_phone": "(424) 382-8289", "distance": 26784.409706265487}, {"id": "3aT6b_QN2CVLcjg-gDhehQ", "alias": "the-circle-long-beach-2", "name": "The Circle", "image_url": "https://s3-media3.fl.yelpcdn.com/bphoto/ksclvc5u6s9_mBNrbKBDKg/o.jpg", "is_closed": false, "url": "https://www.yelp.com/biz/the-circle-long-beach-2?adjust_creative=sZ3yryoyE3Dcs3GsAvlcFA&utm_campaign=yelp_api_v3&utm_medium=api_v3_business_search&utm_source=sZ3yryoyE3Dcs3GsAvlcFA", "review_count": 13, "categories": [{"alias": "cannabisdispensaries", "title": "Cannabis Dispensaries"}], "rating": 4.0, "coordinates": {"latitude": 33.78905, "longitude": -118.13945}, "transactions": [], "price": "$$", "location": {"address1": "1755 Ximeno Ave", "address2": null, "address3": "", "city": "Long Beach", "zip_code": "90815", "country": "US", "state": "CA", "display_address": ["1755 Ximeno Ave", "Long Beach, CA 90815"]}, "phone": "+15624980993", "display_phone": "(562) 498-0993", "distance": 34633.00573110332}, {"id": "q97ZARoqg_HkWK-r8M_bhA", "alias": "420-frat-house-los-angeles", "name": "420 Frat House", "image_url": "https://s3-media4.fl.yelpcdn.com/bphoto/va2wJictDzPY9zTIli1AkA/o.jpg", "is_closed": false, "url": "https://www.yelp.com/biz/420-frat-house-los-angeles?adjust_creative=sZ3yryoyE3Dcs3GsAvlcFA&utm_campaign=yelp_api_v3&utm_medium=api_v3_business_search&utm_source=sZ3yryoyE3Dcs3GsAvlcFA", "review_count": 2, "categories": [{"alias": "headshops", "title": "Head Shops"}, {"alias": "cannabisdispensaries", "title": "Cannabis Dispensaries"}], "rating": 2.0, "coordinates": {"latitude": 34.01083, "longitude": -118.27141}, "transactions": [], "location": {"address1": "202 E Martin Luther King Jr Blvd", "address2": null, "address3": "", "city": "Los Angeles", "zip_code": "90011", "country": "US", "state": "CA", "display_address": ["202 E Martin Luther King Jr Blvd", "Los Angeles, CA 90011"]}, "phone": "+13237368530", "display_phone": "(323) 736-8530", "distance": 7290.515041150431}, {"id": "vXvZCsMA8lpnU_QCVcqh-w", "alias": "cookies-los-angeles-maywood", "name": "Cookies Los Angeles", "image_url": "https://s3-media1.fl.yelpcdn.com/bphoto/AhUE202evszXb0IWdOPIIQ/o.jpg", "is_closed": false, "url": "https://www.yelp.com/biz/cookies-los-angeles-maywood?adjust_creative=sZ3yryoyE3Dcs3GsAvlcFA&utm_campaign=yelp_api_v3&utm_medium=api_v3_business_search&utm_source=sZ3yryoyE3Dcs3GsAvlcFA", "review_count": 12, "categories": [{"alias": "cannabisdispensaries", "title": "Cannabis Dispensaries"}], "rating": 3.0, "coordinates": {"latitude": 33.9895796636458, "longitude": -118.203753216315}, "transactions": [], "price": "$$$", "location": {"address1": "5815 Maywood Ave", "address2": "", "address3": null, "city": "Maywood", "zip_code": "90270", "country": "US", "state": "CA", "display_address": ["5815 Maywood Ave", "Maywood, CA 90270"]}, "phone": "+13105939908", "display_phone": "(310) 593-9908", "distance": 13476.77285305054}, {"id": "ZL6YP1E28bJu5XKd2OmtVQ", "alias": "west-coast-clones-anaheim-2", "name": "West Coast Clones", "image_url": "https://s3-media3.fl.yelpcdn.com/bphoto/NqFKnEA7zYP7NgYoydjTeQ/o.jpg", "is_closed": false, "url": "https://www.yelp.com/biz/west-coast-clones-anaheim-2?adjust_creative=sZ3yryoyE3Dcs3GsAvlcFA&utm_campaign=yelp_api_v3&utm_medium=api_v3_business_search&utm_source=sZ3yryoyE3Dcs3GsAvlcFA", "review_count": 13, "categories": [{"alias": "cannabisdispensaries", "title": "Cannabis Dispensaries"}, {"alias": "cannabiscollective", "title": "Cannabis Collective"}], "rating": 4.0, "coordinates": {"latitude": 33.8439445495605, "longitude": -117.941757202148}, "transactions": [], "location": {"address1": "", "address2": null, "address3": "", "city": "Anaheim", "zip_code": "92801", "country": "US", "state": "CA", "display_address": ["Anaheim, CA 92801"]}, "phone": "+17145835751", "display_phone": "(714) 583-5751", "distance": 41430.29147824396}, {"id": "SJcPRrvfLXFoRiw2xte03A", "alias": "from-the-earth-port-hueneme", "name": "From The Earth", "image_url": "https://s3-media2.fl.yelpcdn.com/bphoto/sYdoShfFsmsjkwMYzHXEBw/o.jpg", "is_closed": false, "url": "https://www.yelp.com/biz/from-the-earth-port-hueneme?adjust_creative=sZ3yryoyE3Dcs3GsAvlcFA&utm_campaign=yelp_api_v3&utm_medium=api_v3_business_search&utm_source=sZ3yryoyE3Dcs3GsAvlcFA", "review_count": 12, "categories": [{"alias": "cannabisdispensaries", "title": "Cannabis Dispensaries"}], "rating": 3.0, "coordinates": {"latitude": 34.1782, "longitude": -119.19631}, "transactions": [], "price": "$$", "location": {"address1": "2675 North Ventura Rd", "address2": "Ste 107", "address3": "", "city": "Port Hueneme", "zip_code": "93041", "country": "US", "state": "CA", "display_address": ["2675 North Ventura Rd", "Ste 107", "Port Hueneme, CA 93041"]}, "phone": "+18054141394", "display_phone": "(805) 414-1394", "distance": 81586.1734117816}, {"id": "VassuDwenVxcvbg116mYeA", "alias": "stoney-cannabis-delivery-santa-ana", "name": "Stoney Cannabis Delivery", "image_url": "https://s3-media3.fl.yelpcdn.com/bphoto/QkMK_liyKtnCSbG6dLZGpg/o.jpg", "is_closed": false, "url": "https://www.yelp.com/biz/stoney-cannabis-delivery-santa-ana?adjust_creative=sZ3yryoyE3Dcs3GsAvlcFA&utm_campaign=yelp_api_v3&utm_medium=api_v3_business_search&utm_source=sZ3yryoyE3Dcs3GsAvlcFA", "review_count": 45, "categories": [{"alias": "cannabis_clinics", "title": "Cannabis Clinics"}, {"alias": "cannabisdispensaries", "title": "Cannabis Dispensaries"}], "rating": 3.5, "coordinates": {"latitude": 33.76342, "longitude": -117.79442}, "transactions": [], "price": "$", "location": {"address1": "", "address2": null, "address3": "", "city": "Santa Ana", "zip_code": "92705", "country": "US", "state": "CA", "display_address": ["Santa Ana, CA 92705"]}, "phone": "+18667671420", "display_phone": "(866) 767-1420", "distance": 59828.000432309986}, {"id": "tKAFxEgsZDhPR-CaAVLYPQ", "alias": "420-nature-aid-los-angeles", "name": "420 Nature Aid", "image_url": "https://s3-media3.fl.yelpcdn.com/bphoto/crhcREeFIZr5p6QfmWvx-Q/o.jpg", "is_closed": false, "url": "https://www.yelp.com/biz/420-nature-aid-los-angeles?adjust_creative=sZ3yryoyE3Dcs3GsAvlcFA&utm_campaign=yelp_api_v3&utm_medium=api_v3_business_search&utm_source=sZ3yryoyE3Dcs3GsAvlcFA", "review_count": 2, "categories": [{"alias": "cannabisdispensaries", "title": "Cannabis Dispensaries"}], "rating": 3.0, "coordinates": {"latitude": 33.9700012207031, "longitude": -118.376281738281}, "transactions": [], "location": {"address1": null, "address2": null, "address3": "", "city": "Los Angeles", "zip_code": "90045", "country": "US", "state": "CA", "display_address": ["Los Angeles, CA 90045"]}, "phone": "+13235961048", "display_phone": "(323) 596-1048", "distance": 13666.7884882087}, {"id": "K9-V5vtCy8x5nFWTyqtq1Q", "alias": "harvest-moon-dispensables-west-los-angeles-2", "name": "Harvest Moon Dispensables", "image_url": "https://s3-media1.fl.yelpcdn.com/bphoto/HppblO94grsjI6L1UkTZRw/o.jpg", "is_closed": false, "url": "https://www.yelp.com/biz/harvest-moon-dispensables-west-los-angeles-2?adjust_creative=sZ3yryoyE3Dcs3GsAvlcFA&utm_campaign=yelp_api_v3&utm_medium=api_v3_business_search&utm_source=sZ3yryoyE3Dcs3GsAvlcFA", "review_count": 1, "categories": [{"alias": "cannabisdispensaries", "title": "Cannabis Dispensaries"}], "rating": 5.0, "coordinates": {"latitude": 34.0464706420898, "longitude": -118.433952331543}, "transactions": [], "price": "$", "location": {"address1": null, "address2": null, "address3": "", "city": "West Los Angeles", "zip_code": "90064", "country": "US", "state": "CA", "display_address": ["West Los Angeles, CA 90064"]}, "phone": "+14243614372", "display_phone": "(424) 361-4372", "distance": 9627.652417125457}, {"id": "FAyYYATiCH5TIAlAyUsGHQ", "alias": "chc-7g-8th-vernon", "name": "CHC 7G 8th", "image_url": "", "is_closed": false, "url": "https://www.yelp.com/biz/chc-7g-8th-vernon?adjust_creative=sZ3yryoyE3Dcs3GsAvlcFA&utm_campaign=yelp_api_v3&utm_medium=api_v3_business_search&utm_source=sZ3yryoyE3Dcs3GsAvlcFA", "review_count": 1, "categories": [{"alias": "cannabisdispensaries", "title": "Cannabis Dispensaries"}], "rating": 5.0, "coordinates": {"latitude": 34.01766, "longitude": -118.24386}, "transactions": [], "price": "$$", "location": {"address1": "2111 Long Beach Ave", "address2": "", "address3": null, "city": "Vernon", "zip_code": "90058", "country": "US", "state": "CA", "display_address": ["2111 Long Beach Ave", "Vernon, CA 90058"]}, "phone": "+12136631202", "display_phone": "(213) 663-1202", "distance": 8654.2054295596}, {"id": "FoC28mDrl1BCbXmF6VijdA", "alias": "la-discount-super-store-los-angeles", "name": "LA Discount Super Store", "image_url": "https://s3-media1.fl.yelpcdn.com/bphoto/4ogmhO6pQ-2_KkN95tU0vg/o.jpg", "is_closed": false, "url": "https://www.yelp.com/biz/la-discount-super-store-los-angeles?adjust_creative=sZ3yryoyE3Dcs3GsAvlcFA&utm_campaign=yelp_api_v3&utm_medium=api_v3_business_search&utm_source=sZ3yryoyE3Dcs3GsAvlcFA", "review_count": 2, "categories": [{"alias": "cannabis_clinics", "title": "Cannabis Clinics"}, {"alias": "cannabisdispensaries", "title": "Cannabis Dispensaries"}, {"alias": "cannabisreferrals", "title": "Medical Cannabis Referrals"}], "rating": 2.0, "coordinates": {"latitude": 34.0345297, "longitude": -118.2164091}, "transactions": [], "price": "$$", "location": {"address1": "2314 Whittier Blvd", "address2": null, "address3": "", "city": "Los Angeles", "zip_code": "90023", "country": "US", "state": "CA", "display_address": ["2314 Whittier Blvd", "Los Angeles, CA 90023"]}, "phone": "+16262408923", "display_phone": "(626) 240-8923", "distance": 10120.241422561392}, {"id": "L-5qFcQyVU23q3k0cyh3Dg", "alias": "jack-canna-los-angeles", "name": "Jack Canna", "image_url": "https://s3-media2.fl.yelpcdn.com/bphoto/18SjrJB1gMOd23pDfHQZDg/o.jpg", "is_closed": false, "url": "https://www.yelp.com/biz/jack-canna-los-angeles?adjust_creative=sZ3yryoyE3Dcs3GsAvlcFA&utm_campaign=yelp_api_v3&utm_medium=api_v3_business_search&utm_source=sZ3yryoyE3Dcs3GsAvlcFA", "review_count": 1, "categories": [{"alias": "cannabisdispensaries", "title": "Cannabis Dispensaries"}], "rating": 1.0, "coordinates": {"latitude": 34.0242671, "longitude": -118.2391039}, "transactions": [], "price": "$$$$", "location": {"address1": "1444 S Alameda St", "address2": "", "address3": null, "city": "Los Angeles", "zip_code": "90021", "country": "US", "state": "CA", "display_address": ["1444 S Alameda St", "Los Angeles, CA 90021"]}, "phone": "+13463000928", "display_phone": "(346) 300-0928", "distance": 8678.277132014873}, {"id": "5JZsx7f3fV-XJlL_KsNGkA", "alias": "420-ganja-delivery-los-angeles", "name": "420 Ganja Delivery", "image_url": "https://s3-media2.fl.yelpcdn.com/bphoto/9-2fhkClhV1BLrn31pWdMQ/o.jpg", "is_closed": false, "url": "https://www.yelp.com/biz/420-ganja-delivery-los-angeles?adjust_creative=sZ3yryoyE3Dcs3GsAvlcFA&utm_campaign=yelp_api_v3&utm_medium=api_v3_business_search&utm_source=sZ3yryoyE3Dcs3GsAvlcFA", "review_count": 1, "categories": [{"alias": "cannabisdispensaries", "title": "Cannabis Dispensaries"}], "rating": 5.0, "coordinates": {"latitude": 34.0235135, "longitude": -118.2096651}, "transactions": [], "location": {"address1": "", "address2": "", "address3": null, "city": "Los Angeles", "zip_code": "90023", "country": "US", "state": "CA", "display_address": ["Los Angeles, CA 90023"]}, "phone": "+13239806521", "display_phone": "(323) 980-6521", "distance": 11130.026172608032}, {"id": "JXUsxic1Cm4c8hUTxXsTWA", "alias": "green-mile-burbank-2", "name": "Green Mile", "image_url": "https://s3-media2.fl.yelpcdn.com/bphoto/kAJs3vs6aEpOJrEojZoGdg/o.jpg", "is_closed": false, "url": "https://www.yelp.com/biz/green-mile-burbank-2?adjust_creative=sZ3yryoyE3Dcs3GsAvlcFA&utm_campaign=yelp_api_v3&utm_medium=api_v3_business_search&utm_source=sZ3yryoyE3Dcs3GsAvlcFA", "review_count": 1, "categories": [{"alias": "cannabisdispensaries", "title": "Cannabis Dispensaries"}], "rating": 5.0, "coordinates": {"latitude": 34.156063079834, "longitude": -118.343688964844}, "transactions": [], "location": {"address1": null, "address2": null, "address3": "", "city": "Burbank", "zip_code": "91505", "country": "US", "state": "CA", "display_address": ["Burbank, CA 91505"]}, "phone": "+18885084652", "display_phone": "(888) 508-4652", "distance": 11247.440856710753}, {"id": "dA3oZMszzKNeopvLFv4fWg", "alias": "420weedkeef-santa-monica-4", "name": "420Weedkeef", "image_url": "https://s3-media2.fl.yelpcdn.com/bphoto/uUmY2H6660RY6OAXd1nanA/o.jpg", "is_closed": false, "url": "https://www.yelp.com/biz/420weedkeef-santa-monica-4?adjust_creative=sZ3yryoyE3Dcs3GsAvlcFA&utm_campaign=yelp_api_v3&utm_medium=api_v3_business_search&utm_source=sZ3yryoyE3Dcs3GsAvlcFA", "review_count": 1, "categories": [{"alias": "cannabisdispensaries", "title": "Cannabis Dispensaries"}, {"alias": "couriers", "title": "Couriers & Delivery Services"}], "rating": 5.0, "coordinates": {"latitude": 34.0161098854751, "longitude": -118.495390936732}, "transactions": [], "location": {"address1": "", "address2": null, "address3": "", "city": "Santa Monica", "zip_code": "90403", "country": "US", "state": "CA", "display_address": ["Santa Monica, CA 90403"]}, "phone": "+18667991150", "display_phone": "(866) 799-1150", "distance": 16812.35042513772}, {"id": "77xsifFfnKGpdyra2YGYrw", "alias": "uber-weed-north-hollywood-7", "name": "UBER WEED", "image_url": "https://s3-media4.fl.yelpcdn.com/bphoto/qp2uvivOGTbH9t2kQ19xiw/o.jpg", "is_closed": false, "url": "https://www.yelp.com/biz/uber-weed-north-hollywood-7?adjust_creative=sZ3yryoyE3Dcs3GsAvlcFA&utm_campaign=yelp_api_v3&utm_medium=api_v3_business_search&utm_source=sZ3yryoyE3Dcs3GsAvlcFA", "review_count": 2, "categories": [{"alias": "cannabis_clinics", "title": "Cannabis Clinics"}, {"alias": "cannabisdispensaries", "title": "Cannabis Dispensaries"}, {"alias": "cannabiscollective", "title": "Cannabis Collective"}], "rating": 5.0, "coordinates": {"latitude": 34.18638, "longitude": -118.3847}, "transactions": [], "location": {"address1": null, "address2": null, "address3": "", "city": "North Hollywood", "zip_code": "91606", "country": "US", "state": "CA", "display_address": ["North Hollywood, CA 91606"]}, "phone": "+17472432677", "display_phone": "(747) 243-2677", "distance": 15349.944091589463}, {"id": "gmbEJ8jZEn-Dki7V5T4qqg", "alias": "blowing-trees-los-angeles", "name": "Blowing Trees", "image_url": "https://s3-media1.fl.yelpcdn.com/bphoto/AM7s40vyxHLm-8dpQ3aKDg/o.jpg", "is_closed": false, "url": "https://www.yelp.com/biz/blowing-trees-los-angeles?adjust_creative=sZ3yryoyE3Dcs3GsAvlcFA&utm_campaign=yelp_api_v3&utm_medium=api_v3_business_search&utm_source=sZ3yryoyE3Dcs3GsAvlcFA", "review_count": 1, "categories": [{"alias": "cannabisdispensaries", "title": "Cannabis Dispensaries"}], "rating": 1.0, "coordinates": {"latitude": 34.0286, "longitude": -118.20085}, "transactions": [], "price": "$", "location": {"address1": "815 S Lorena St", "address2": "Ste D", "address3": "", "city": "Los Angeles", "zip_code": "90023", "country": "US", "state": "CA", "display_address": ["815 S Lorena St", "Ste D", "Los Angeles, CA 90023"]}, "phone": "+13235061411", "display_phone": "(323) 506-1411", "distance": 11706.66775155561}, {"id": "7WrOYsXfYIFldoEhOxIFEQ", "alias": "downtown-buyers-club-los-angeles", "name": "Downtown Buyers Club", "image_url": "https://s3-media3.fl.yelpcdn.com/bphoto/-xSFq4CXP-jUkaRn8B9L5Q/o.jpg", "is_closed": false, "url": "https://www.yelp.com/biz/downtown-buyers-club-los-angeles?adjust_creative=sZ3yryoyE3Dcs3GsAvlcFA&utm_campaign=yelp_api_v3&utm_medium=api_v3_business_search&utm_source=sZ3yryoyE3Dcs3GsAvlcFA", "review_count": 1, "categories": [{"alias": "cannabisdispensaries", "title": "Cannabis Dispensaries"}, {"alias": "cannabis_clinics", "title": "Cannabis Clinics"}], "rating": 1.0, "coordinates": {"latitude": 34.023582, "longitude": -118.2446988}, "transactions": [], "price": "$$", "location": {"address1": "1501 E 17th St", "address2": "", "address3": null, "city": "Los Angeles", "zip_code": "90021", "country": "US", "state": "CA", "display_address": ["1501 E 17th St", "Los Angeles, CA 90021"]}, "phone": "+12135365497", "display_phone": "(213) 536-5497", "distance": 8232.871119522344}, {"id": "HeU_kwH2VETdkcoc9KtFCQ", "alias": "nurserys-best-mmj-delivery-bell", "name": "Nursery's Best MMJ Delivery", "image_url": "https://s3-media1.fl.yelpcdn.com/bphoto/F67pqlYqQOfUmh7zdCNOtQ/o.jpg", "is_closed": false, "url": "https://www.yelp.com/biz/nurserys-best-mmj-delivery-bell?adjust_creative=sZ3yryoyE3Dcs3GsAvlcFA&utm_campaign=yelp_api_v3&utm_medium=api_v3_business_search&utm_source=sZ3yryoyE3Dcs3GsAvlcFA", "review_count": 5, "categories": [{"alias": "cannabisdispensaries", "title": "Cannabis Dispensaries"}], "rating": 3.5, "coordinates": {"latitude": 33.96159, "longitude": -118.16139}, "transactions": [], "location": {"address1": null, "address2": null, "address3": "", "city": "Bell", "zip_code": "90201", "country": "US", "state": "CA", "display_address": ["Bell, CA 90201"]}, "phone": "+13234005204", "display_phone": "(323) 400-5204", "distance": 17008.152803412107}, {"id": "6l-eX01PZhkRvQLsiWPbXg", "alias": "greenberry-collective-los-angeles-5", "name": "Greenberry Collective", "image_url": "https://s3-media4.fl.yelpcdn.com/bphoto/qagPFKXGO8KIGPtGb-aU9g/o.jpg", "is_closed": false, "url": "https://www.yelp.com/biz/greenberry-collective-los-angeles-5?adjust_creative=sZ3yryoyE3Dcs3GsAvlcFA&utm_campaign=yelp_api_v3&utm_medium=api_v3_business_search&utm_source=sZ3yryoyE3Dcs3GsAvlcFA", "review_count": 1, "categories": [{"alias": "cannabisdispensaries", "title": "Cannabis Dispensaries"}], "rating": 5.0, "coordinates": {"latitude": 34.198571, "longitude": -118.491772}, "transactions": [], "location": {"address1": "7040 Hayvenhurst Ave", "address2": "", "address3": null, "city": "Los Angeles", "zip_code": "91406", "country": "US", "state": "CA", "display_address": ["7040 Hayvenhurst Ave", "Los Angeles, CA 91406"]}, "phone": "+18185101777", "display_phone": "(818) 510-1777", "distance": 21873.491833078093}, {"id": "IBMR4f0MZRwty5S0wgLkzA", "alias": "herbanmed-delivery-orange-county-2", "name": "HerbanMed Delivery", "image_url": "https://s3-media3.fl.yelpcdn.com/bphoto/iuHPqQH5Lcvo6z8I-XQ2Rg/o.jpg", "is_closed": false, "url": "https://www.yelp.com/biz/herbanmed-delivery-orange-county-2?adjust_creative=sZ3yryoyE3Dcs3GsAvlcFA&utm_campaign=yelp_api_v3&utm_medium=api_v3_business_search&utm_source=sZ3yryoyE3Dcs3GsAvlcFA", "review_count": 4, "categories": [{"alias": "couriers", "title": "Couriers & Delivery Services"}, {"alias": "cannabis_clinics", "title": "Cannabis Clinics"}, {"alias": "cannabisdispensaries", "title": "Cannabis Dispensaries"}], "rating": 5.0, "coordinates": {"latitude": 33.8013191223145, "longitude": -117.836860656738}, "transactions": [], "price": "$$", "location": {"address1": "", "address2": null, "address3": "", "city": "Orange County", "zip_code": "92864", "country": "US", "state": "CA", "display_address": ["Orange County, CA 92864"]}, "phone": "+17149244204", "display_phone": "(714) 924-4204", "distance": 53269.14258206175}, {"id": "ZAQaZmIvSsrayve_yHbHag", "alias": "high-flyers-ca-long-beach", "name": "High Flyers CA", "image_url": "https://s3-media2.fl.yelpcdn.com/bphoto/nLqxsKEwZgVoTUWqpsJiPQ/o.jpg", "is_closed": false, "url": "https://www.yelp.com/biz/high-flyers-ca-long-beach?adjust_creative=sZ3yryoyE3Dcs3GsAvlcFA&utm_campaign=yelp_api_v3&utm_medium=api_v3_business_search&utm_source=sZ3yryoyE3Dcs3GsAvlcFA", "review_count": 2, "categories": [{"alias": "cannabisdispensaries", "title": "Cannabis Dispensaries"}], "rating": 5.0, "coordinates": {"latitude": 33.85415, "longitude": -118.1916}, "transactions": [], "location": {"address1": "", "address2": null, "address3": "", "city": "Long Beach", "zip_code": "90805", "country": "US", "state": "CA", "display_address": ["Long Beach, CA 90805"]}, "phone": "+16615374331", "display_phone": "(661) 537-4331", "distance": 25702.513637550805}, {"id": "TfCPBhvLCpohaOlryqzfXg", "alias": "five-star-collective-los-angeles", "name": "Five Star Collective", "image_url": "https://s3-media3.fl.yelpcdn.com/bphoto/XwNGWNHT4KbRWjigOR5ihQ/o.jpg", "is_closed": false, "url": "https://www.yelp.com/biz/five-star-collective-los-angeles?adjust_creative=sZ3yryoyE3Dcs3GsAvlcFA&utm_campaign=yelp_api_v3&utm_medium=api_v3_business_search&utm_source=sZ3yryoyE3Dcs3GsAvlcFA", "review_count": 2, "categories": [{"alias": "cannabisdispensaries", "title": "Cannabis Dispensaries"}], "rating": 3.0, "coordinates": {"latitude": 33.9455849, "longitude": -118.316414}, "transactions": [], "location": {"address1": "2105 W Century Blvd", "address2": "", "address3": "", "city": "Los Angeles", "zip_code": "90047", "country": "US", "state": "CA", "display_address": ["2105 W Century Blvd", "Los Angeles, CA 90047"]}, "phone": "+13237772105", "display_phone": "(323) 777-2105", "distance": 12899.203021853626}, {"id": "WaOczsnnDFGPFLXiHwm7JA", "alias": "nohicbd-santa-clarita", "name": "NoHiCBD", "image_url": "https://s3-media2.fl.yelpcdn.com/bphoto/ihXV9CRjfZTbx6ezfYKHXg/o.jpg", "is_closed": false, "url": "https://www.yelp.com/biz/nohicbd-santa-clarita?adjust_creative=sZ3yryoyE3Dcs3GsAvlcFA&utm_campaign=yelp_api_v3&utm_medium=api_v3_business_search&utm_source=sZ3yryoyE3Dcs3GsAvlcFA", "review_count": 2, "categories": [{"alias": "cannabisdispensaries", "title": "Cannabis Dispensaries"}], "rating": 5.0, "coordinates": {"latitude": 34.4217414855957, "longitude": -118.561622619629}, "transactions": [], "location": {"address1": null, "address2": null, "address3": "", "city": "Santa Clarita", "zip_code": "91380", "country": "US", "state": "CA", "display_address": ["Santa Clarita, CA 91380"]}, "phone": "+17143180213", "display_phone": "(714) 318-0213", "distance": 49281.22622584011}, {"id": "tkF3op3DsKDzVKCNC7or9w", "alias": "vybes-west-hollywood", "name": "Vybes", "image_url": "https://s3-media2.fl.yelpcdn.com/bphoto/LCpMA7Z2UqUN5toKbFxfpA/o.jpg", "is_closed": false, "url": "https://www.yelp.com/biz/vybes-west-hollywood?adjust_creative=sZ3yryoyE3Dcs3GsAvlcFA&utm_campaign=yelp_api_v3&utm_medium=api_v3_business_search&utm_source=sZ3yryoyE3Dcs3GsAvlcFA", "review_count": 1, "categories": [{"alias": "cannabisdispensaries", "title": "Cannabis Dispensaries"}], "rating": 3.0, "coordinates": {"latitude": 34.08879, "longitude": -118.37803}, "transactions": [], "location": {"address1": "8581 Santa Monica Blvd", "address2": "Ste 335", "address3": null, "city": "West Hollywood", "zip_code": "90069", "country": "US", "state": "CA", "display_address": ["8581 Santa Monica Blvd", "Ste 335", "West Hollywood, CA 90069"]}, "phone": "", "display_phone": "", "distance": 6075.0322182204745}, {"id": "tkvJAkVv9Dl05L4Xjedxng", "alias": "high-maintenance-la-los-angeles-2", "name": "High Maintenance LA", "image_url": "https://s3-media2.fl.yelpcdn.com/bphoto/SZw0_Pe07gyuGN8f_VdyLg/o.jpg", "is_closed": false, "url": "https://www.yelp.com/biz/high-maintenance-la-los-angeles-2?adjust_creative=sZ3yryoyE3Dcs3GsAvlcFA&utm_campaign=yelp_api_v3&utm_medium=api_v3_business_search&utm_source=sZ3yryoyE3Dcs3GsAvlcFA", "review_count": 1, "categories": [{"alias": "cannabisdispensaries", "title": "Cannabis Dispensaries"}], "rating": 1.0, "coordinates": {"latitude": 34.03732, "longitude": -118.26116}, "transactions": [], "price": "$", "location": {"address1": "", "address2": "", "address3": "", "city": "Los Angeles", "zip_code": "90015", "country": "US", "state": "CA", "display_address": ["Los Angeles, CA 90015"]}, "phone": "+14243171867", "display_phone": "(424) 317-1867", "distance": 5580.8995529348895}, {"id": "AJ7lhjRdz9OL8xOXIR4gfw", "alias": "marijuana-strains-store-los-angeles", "name": "Marijuana Strains Store", "image_url": "https://s3-media1.fl.yelpcdn.com/bphoto/r8KG6f9818OhYDzyaqmybw/o.jpg", "is_closed": false, "url": "https://www.yelp.com/biz/marijuana-strains-store-los-angeles?adjust_creative=sZ3yryoyE3Dcs3GsAvlcFA&utm_campaign=yelp_api_v3&utm_medium=api_v3_business_search&utm_source=sZ3yryoyE3Dcs3GsAvlcFA", "review_count": 1, "categories": [{"alias": "cannabisdispensaries", "title": "Cannabis Dispensaries"}], "rating": 1.0, "coordinates": {"latitude": 34.0554599, "longitude": -118.27789}, "transactions": [], "location": {"address1": "741 S Alvarado St", "address2": null, "address3": "", "city": "Los Angeles", "zip_code": "90057", "country": "US", "state": "CA", "display_address": ["741 S Alvarado St", "Los Angeles, CA 90057"]}, "phone": "+13234259381", "display_phone": "(323) 425-9381", "distance": 4086.505674017711}, {"id": "axf0zoDuAAasHhYgXVx1Ug", "alias": "ez-custom-packaging-los-angeles-2", "name": "EZ Custom Packaging", "image_url": "https://s3-media2.fl.yelpcdn.com/bphoto/Gmr6kR2b_Btz2cATlPQY5A/o.jpg", "is_closed": false, "url": "https://www.yelp.com/biz/ez-custom-packaging-los-angeles-2?adjust_creative=sZ3yryoyE3Dcs3GsAvlcFA&utm_campaign=yelp_api_v3&utm_medium=api_v3_business_search&utm_source=sZ3yryoyE3Dcs3GsAvlcFA", "review_count": 1, "categories": [{"alias": "cannabisdispensaries", "title": "Cannabis Dispensaries"}], "rating": 1.0, "coordinates": {"latitude": 34.0469234, "longitude": -118.2441952}, "transactions": [], "location": {"address1": "330 Wall St", "address2": "", "address3": "", "city": "Los Angeles", "zip_code": "90013", "country": "US", "state": "CA", "display_address": ["330 Wall St", "Los Angeles, CA 90013"]}, "phone": "+13234993290", "display_phone": "(323) 499-3290", "distance": 7295.373061442401}, {"id": "DKw8B2eN_g-4B6KrJ0N4PA", "alias": "giving-greens-delivery-los-angeles-2", "name": "Giving Greens Delivery", "image_url": "https://s3-media2.fl.yelpcdn.com/bphoto/lEtRgvrSMI2ajuLNG9Hrcw/o.jpg", "is_closed": false, "url": "https://www.yelp.com/biz/giving-greens-delivery-los-angeles-2?adjust_creative=sZ3yryoyE3Dcs3GsAvlcFA&utm_campaign=yelp_api_v3&utm_medium=api_v3_business_search&utm_source=sZ3yryoyE3Dcs3GsAvlcFA", "review_count": 1, "categories": [{"alias": "cannabisdispensaries", "title": "Cannabis Dispensaries"}], "rating": 1.0, "coordinates": {"latitude": 33.9740867614746, "longitude": -118.24983215332}, "transactions": [], "price": "$$", "location": {"address1": "", "address2": null, "address3": "", "city": "Los Angeles", "zip_code": "90001", "country": "US", "state": "CA", "display_address": ["Los Angeles, CA 90001"]}, "phone": "+12136181964", "display_phone": "(213) 618-1964", "distance": 12305.625781423201}, {"id": "PGsvIAhd-ZwFpPP0uy2sCw", "alias": "purecannastore-los-angeles", "name": "Purecannastore", "image_url": "https://s3-media2.fl.yelpcdn.com/bphoto/3397--gQWE4cPRP07hkBRg/o.jpg", "is_closed": false, "url": "https://www.yelp.com/biz/purecannastore-los-angeles?adjust_creative=sZ3yryoyE3Dcs3GsAvlcFA&utm_campaign=yelp_api_v3&utm_medium=api_v3_business_search&utm_source=sZ3yryoyE3Dcs3GsAvlcFA", "review_count": 1, "categories": [{"alias": "cannabisdispensaries", "title": "Cannabis Dispensaries"}], "rating": 1.0, "coordinates": {"latitude": 34.03367, "longitude": -118.18426}, "transactions": [], "location": {"address1": "3853 E 3rd St", "address2": null, "address3": "", "city": "Los Angeles", "zip_code": "90063", "country": "US", "state": "CA", "display_address": ["3853 E 3rd St", "Los Angeles, CA 90063"]}, "phone": "+13237232476", "display_phone": "(323) 723-2476", "distance": 13004.809858445504}, {"id": "FnvrXXi3KhRePjNWeEokLg", "alias": "spectwonders-compton-2", "name": "Spectwonders", "image_url": "https://s3-media2.fl.yelpcdn.com/bphoto/CDxd_87FD9vWOn5ENbMLTA/o.jpg", "is_closed": false, "url": "https://www.yelp.com/biz/spectwonders-compton-2?adjust_creative=sZ3yryoyE3Dcs3GsAvlcFA&utm_campaign=yelp_api_v3&utm_medium=api_v3_business_search&utm_source=sZ3yryoyE3Dcs3GsAvlcFA", "review_count": 1, "categories": [{"alias": "cannabisdispensaries", "title": "Cannabis Dispensaries"}], "rating": 1.0, "coordinates": {"latitude": 33.90323, "longitude": -118.202912}, "transactions": [], "location": {"address1": "1920 Erosecrans Blvd", "address2": null, "address3": "", "city": "Compton", "zip_code": "90221", "country": "US", "state": "CA", "display_address": ["1920 Erosecrans Blvd", "Compton, CA 90221"]}, "phone": "+17147022841", "display_phone": "(714) 702-2841", "distance": 20721.621425741232}, {"id": "b1-VZ-f6kTcIfIPea2CNIA", "alias": "venice-medical-center-culver-city-3", "name": "Venice Medical Center", "image_url": "https://s3-media4.fl.yelpcdn.com/bphoto/4E4xt7bSoM9bLnYSPxbpCw/o.jpg", "is_closed": false, "url": "https://www.yelp.com/biz/venice-medical-center-culver-city-3?adjust_creative=sZ3yryoyE3Dcs3GsAvlcFA&utm_campaign=yelp_api_v3&utm_medium=api_v3_business_search&utm_source=sZ3yryoyE3Dcs3GsAvlcFA", "review_count": 2, "categories": [{"alias": "cannabisdispensaries", "title": "Cannabis Dispensaries"}], "rating": 4.0, "coordinates": {"latitude": 34.02425, "longitude": -118.39645}, "transactions": [], "location": {"address1": "9636 Venice Blvd", "address2": null, "address3": "", "city": "Culver City", "zip_code": "90232", "country": "US", "state": "CA", "display_address": ["9636 Venice Blvd", "Culver City, CA 90232"]}, "phone": "+14242931121", "display_phone": "(424) 293-1121", "distance": 8067.805339093724}, {"id": "M2unJozRV5cSYxGZ-22SFw", "alias": "pasadena-419-pasadena-4", "name": "Pasadena 419", "image_url": "https://s3-media2.fl.yelpcdn.com/bphoto/_GkeArTQlhGTrdfn3-OvAg/o.jpg", "is_closed": false, "url": "https://www.yelp.com/biz/pasadena-419-pasadena-4?adjust_creative=sZ3yryoyE3Dcs3GsAvlcFA&utm_campaign=yelp_api_v3&utm_medium=api_v3_business_search&utm_source=sZ3yryoyE3Dcs3GsAvlcFA", "review_count": 6, "categories": [{"alias": "cannabisdispensaries", "title": "Cannabis Dispensaries"}, {"alias": "nonprofit", "title": "Community Service/Non-Profit"}], "rating": 2.5, "coordinates": {"latitude": 34.14924, "longitude": -118.1202686}, "transactions": [], "price": "$$", "location": {"address1": "1460 E Walnut St", "address2": "", "address3": null, "city": "Pasadena", "zip_code": "91106", "country": "US", "state": "CA", "display_address": ["1460 E Walnut St", "Pasadena, CA 91106"]}, "phone": "+13235033665", "display_phone": "(323) 503-3665", "distance": 20924.79173735747}, {"id": "JEhrDxS_dhJzMgoXr6sWhw", "alias": "venice-kush-huntington-park", "name": "Venice Kush", "image_url": "https://s3-media3.fl.yelpcdn.com/bphoto/Ey72vOlxOv_xJW6oa53vbg/o.jpg", "is_closed": false, "url": "https://www.yelp.com/biz/venice-kush-huntington-park?adjust_creative=sZ3yryoyE3Dcs3GsAvlcFA&utm_campaign=yelp_api_v3&utm_medium=api_v3_business_search&utm_source=sZ3yryoyE3Dcs3GsAvlcFA", "review_count": 1, "categories": [{"alias": "cannabisdispensaries", "title": "Cannabis Dispensaries"}], "rating": 5.0, "coordinates": {"latitude": 33.97935, "longitude": -118.25005}, "transactions": [], "price": "$", "location": {"address1": null, "address2": null, "address3": "", "city": "Huntington Park", "zip_code": "90001", "country": "US", "state": "CA", "display_address": ["Huntington Park, CA 90001"]}, "phone": "+13239214884", "display_phone": "(323) 921-4884", "distance": 12305.625781423201}, {"id": "6wdmAHsCeZcjBjIFQkwdKA", "alias": "the-blue-diamond-center-burbank", "name": "The Blue Diamond Center", "image_url": "", "is_closed": false, "url": "https://www.yelp.com/biz/the-blue-diamond-center-burbank?adjust_creative=sZ3yryoyE3Dcs3GsAvlcFA&utm_campaign=yelp_api_v3&utm_medium=api_v3_business_search&utm_source=sZ3yryoyE3Dcs3GsAvlcFA", "review_count": 1, "categories": [{"alias": "cannabisdispensaries", "title": "Cannabis Dispensaries"}], "rating": 1.0, "coordinates": {"latitude": 34.15516, "longitude": -118.34302}, "transactions": [], "location": {"address1": "", "address2": "", "address3": null, "city": "Burbank", "zip_code": "91505", "country": "US", "state": "CA", "display_address": ["Burbank, CA 91505"]}, "phone": "+18187492444", "display_phone": "(818) 749-2444", "distance": 11247.440856710753}, {"id": "JkK5mAsZvMwD9o_ALrILGA", "alias": "101-cbd-ojai", "name": "101 CBD", "image_url": "https://s3-media2.fl.yelpcdn.com/bphoto/xn6jJSpTFq-4gpvG7pqeDA/o.jpg", "is_closed": false, "url": "https://www.yelp.com/biz/101-cbd-ojai?adjust_creative=sZ3yryoyE3Dcs3GsAvlcFA&utm_campaign=yelp_api_v3&utm_medium=api_v3_business_search&utm_source=sZ3yryoyE3Dcs3GsAvlcFA", "review_count": 1, "categories": [{"alias": "cannabisdispensaries", "title": "Cannabis Dispensaries"}], "rating": 5.0, "coordinates": {"latitude": 34.42295, "longitude": -119.28902}, "transactions": [], "location": {"address1": "11420 N Ventura Ave", "address2": "Ste 107", "address3": "", "city": "Ojai", "zip_code": "93023", "country": "US", "state": "CA", "display_address": ["11420 N Ventura Ave", "Ste 107", "Ojai, CA 93023"]}, "phone": "+18055005773", "display_phone": "(805) 500-5773", "distance": 97585.02626034134}, {"id": "8spvBaMQio_l3yD_VKhAgw", "alias": "bud-cellar-north-hollywood", "name": "Bud Cellar", "image_url": "https://s3-media1.fl.yelpcdn.com/bphoto/yVjmeydhZUBujB-VDKw1Rw/o.jpg", "is_closed": false, "url": "https://www.yelp.com/biz/bud-cellar-north-hollywood?adjust_creative=sZ3yryoyE3Dcs3GsAvlcFA&utm_campaign=yelp_api_v3&utm_medium=api_v3_business_search&utm_source=sZ3yryoyE3Dcs3GsAvlcFA", "review_count": 1, "categories": [{"alias": "cannabis_clinics", "title": "Cannabis Clinics"}, {"alias": "cannabisdispensaries", "title": "Cannabis Dispensaries"}, {"alias": "cannabiscollective", "title": "Cannabis Collective"}], "rating": 1.0, "coordinates": {"latitude": 34.1650902, "longitude": -118.3756637}, "transactions": [], "location": {"address1": "11227-11229 Magnolia Blvd", "address2": null, "address3": null, "city": "North Hollywood", "zip_code": "91601", "country": "US", "state": "CA", "display_address": ["11227-11229 Magnolia Blvd", "North Hollywood, CA 91601"]}, "phone": "+14242020716", "display_phone": "(424) 202-0716", "distance": 12546.90357603781}]