,name,is_closed,url,rating,price,review_count,latitude,longitude,location
0,Extra Special Delivery,False,https://www.yelp.com/biz/extra-special-delivery-north-hollywood-16?adjust_creative=sZ3yryoyE3Dcs3GsAvlcFA&utm_campaign=yelp_api_v3&utm_medium=api_v3_business_search&utm_source=sZ3yryoyE3Dcs3GsAvlcFA,5.0,$,68,34.1667203,-118.3751849,"(34.1667203, -118.3751849)"
1,Ganjarunner,False,https://www.yelp.com/biz/ganjarunner-los-angeles-2?adjust_creative=sZ3yryoyE3Dcs3GsAvlcFA&utm_campaign=yelp_api_v3&utm_medium=api_v3_business_search&utm_source=sZ3yryoyE3Dcs3GsAvlcFA,5.0,,51,34.10161,-118.30206,"(34.10161, -118.30206)"
2,The Higher Path,False,https://www.yelp.com/biz/the-higher-path-sherman-oaks-9?adjust_creative=sZ3yryoyE3Dcs3GsAvlcFA&utm_campaign=yelp_api_v3&utm_medium=api_v3_business_search&utm_source=sZ3yryoyE3Dcs3GsAvlcFA,4.5,$$,149,34.1493390052598,-118.439874686508,"(34.1493390052598, -118.439874686508)"
3,Kushfly,False,https://www.yelp.com/biz/kushfly-los-angeles-2?adjust_creative=sZ3yryoyE3Dcs3GsAvlcFA&utm_campaign=yelp_api_v3&utm_medium=api_v3_business_search&utm_source=sZ3yryoyE3Dcs3GsAvlcFA,4.0,$$,147,34.1276,-118.34669,"(34.1276, -118.34669)"
4,MedMen West Hollywood,False,https://www.yelp.com/biz/medmen-west-hollywood-west-hollywood-4?adjust_creative=sZ3yryoyE3Dcs3GsAvlcFA&utm_campaign=yelp_api_v3&utm_medium=api_v3_business_search&utm_source=sZ3yryoyE3Dcs3GsAvlcFA,4.0,$$,323,34.0905911417357,-118.367290442404,"(34.0905911417357, -118.367290442404)"
5,Green Earth Collective,False,https://www.yelp.com/biz/green-earth-collective-los-angeles-6?adjust_creative=sZ3yryoyE3Dcs3GsAvlcFA&utm_campaign=yelp_api_v3&utm_medium=api_v3_business_search&utm_source=sZ3yryoyE3Dcs3GsAvlcFA,4.5,$$,85,34.12247,-118.21067,"(34.12247, -118.21067)"
6,HERB,False,https://www.yelp.com/biz/herb-los-angeles-3?adjust_creative=sZ3yryoyE3Dcs3GsAvlcFA&utm_campaign=yelp_api_v3&utm_medium=api_v3_business_search&utm_source=sZ3yryoyE3Dcs3GsAvlcFA,4.5,$$,58,34.0434989929199,-118.250205993652,"(34.0434989929199, -118.250205993652)"
7,Organic Kind,False,https://www.yelp.com/biz/organic-kind-los-angeles-2?adjust_creative=sZ3yryoyE3Dcs3GsAvlcFA&utm_campaign=yelp_api_v3&utm_medium=api_v3_business_search&utm_source=sZ3yryoyE3Dcs3GsAvlcFA,5.0,$$$,37,34.075957,-118.264026,"(34.075957, -118.264026)"
8,MedMen Downtown - DTLA,False,https://www.yelp.com/biz/medmen-downtown-dtla-los-angeles?adjust_creative=sZ3yryoyE3Dcs3GsAvlcFA&utm_campaign=yelp_api_v3&utm_medium=api_v3_business_search&utm_source=sZ3yryoyE3Dcs3GsAvlcFA,4.0,$$,127,34.0446,-118.25444,"(34.0446, -118.25444)"
9,MedMen Abbot Kinney,False,https://www.yelp.com/biz/medmen-abbot-kinney-los-angeles-3?adjust_creative=sZ3yryoyE3Dcs3GsAvlcFA&utm_campaign=yelp_api_v3&utm_medium=api_v3_business_search&utm_source=sZ3yryoyE3Dcs3GsAvlcFA,4.5,$,96,33.99088,-118.46783,"(33.99088, -118.46783)"
10,Mecca Natural Medicine,False,https://www.yelp.com/biz/mecca-natural-medicine-los-angeles?adjust_creative=sZ3yryoyE3Dcs3GsAvlcFA&utm_campaign=yelp_api_v3&utm_medium=api_v3_business_search&utm_source=sZ3yryoyE3Dcs3GsAvlcFA,4.0,$,117,34.03226,-118.35938,"(34.03226, -118.35938)"
11,Pot Valet,False,https://www.yelp.com/biz/pot-valet-santa-monica-5?adjust_creative=sZ3yryoyE3Dcs3GsAvlcFA&utm_campaign=yelp_api_v3&utm_medium=api_v3_business_search&utm_source=sZ3yryoyE3Dcs3GsAvlcFA,4.5,$$,58,34.0053558349609,-118.479789733887,"(34.0053558349609, -118.479789733887)"
12,Top Shelf Delivery,False,https://www.yelp.com/biz/top-shelf-delivery-west-hollywood-2?adjust_creative=sZ3yryoyE3Dcs3GsAvlcFA&utm_campaign=yelp_api_v3&utm_medium=api_v3_business_search&utm_source=sZ3yryoyE3Dcs3GsAvlcFA,4.5,$$$$,54,34.09289,-118.36068,"(34.09289, -118.36068)"
13,FireHaus Marijuana Dispensary,False,https://www.yelp.com/biz/firehaus-marijuana-dispensary-los-angeles-2?adjust_creative=sZ3yryoyE3Dcs3GsAvlcFA&utm_campaign=yelp_api_v3&utm_medium=api_v3_business_search&utm_source=sZ3yryoyE3Dcs3GsAvlcFA,4.0,$$,86,34.042108,-118.4416266,"(34.042108, -118.4416266)"
14,Cornerstone Research Collective,False,https://www.yelp.com/biz/cornerstone-research-collective-los-angeles?adjust_creative=sZ3yryoyE3Dcs3GsAvlcFA&utm_campaign=yelp_api_v3&utm_medium=api_v3_business_search&utm_source=sZ3yryoyE3Dcs3GsAvlcFA,4.0,$$,104,34.1418972,-118.2220956,"(34.1418972, -118.2220956)"
15,Fast & Friendly Delivery Service,False,https://www.yelp.com/biz/fast-and-friendly-delivery-service-hermosa-beach-4?adjust_creative=sZ3yryoyE3Dcs3GsAvlcFA&utm_campaign=yelp_api_v3&utm_medium=api_v3_business_search&utm_source=sZ3yryoyE3Dcs3GsAvlcFA,4.0,,108,33.8649142,-118.3944767,"(33.8649142, -118.3944767)"
16,Universal Collective,False,https://www.yelp.com/biz/universal-collective-los-angeles?adjust_creative=sZ3yryoyE3Dcs3GsAvlcFA&utm_campaign=yelp_api_v3&utm_medium=api_v3_business_search&utm_source=sZ3yryoyE3Dcs3GsAvlcFA,4.5,$$,42,34.1343,-118.36019,"(34.1343, -118.36019)"
17,Sunset Herbal Corner Dispensary,False,https://www.yelp.com/biz/sunset-herbal-corner-dispensary-los-angeles?adjust_creative=sZ3yryoyE3Dcs3GsAvlcFA&utm_campaign=yelp_api_v3&utm_medium=api_v3_business_search&utm_source=sZ3yryoyE3Dcs3GsAvlcFA,4.0,,72,34.172473,-118.382416,"(34.172473, -118.382416)"
18,Green Angel,False,https://www.yelp.com/biz/green-angel-sherman-oaks?adjust_creative=sZ3yryoyE3Dcs3GsAvlcFA&utm_campaign=yelp_api_v3&utm_medium=api_v3_business_search&utm_source=sZ3yryoyE3Dcs3GsAvlcFA,4.5,,52,34.1488079,-118.4373782,"(34.1488079, -118.4373782)"
19,Rose Collective,False,https://www.yelp.com/biz/rose-collective-venice?adjust_creative=sZ3yryoyE3Dcs3GsAvlcFA&utm_campaign=yelp_api_v3&utm_medium=api_v3_business_search&utm_source=sZ3yryoyE3Dcs3GsAvlcFA,4.0,,83,33.9979274,-118.474851,"(33.9979274, -118.474851)"
20,Herbarium,False,https://www.yelp.com/biz/herbarium-hollywood?adjust_creative=sZ3yryoyE3Dcs3GsAvlcFA&utm_campaign=yelp_api_v3&utm_medium=api_v3_business_search&utm_source=sZ3yryoyE3Dcs3GsAvlcFA,4.5,$$,62,34.08853,-118.3446,"(34.08853, -118.3446)"
21,Los Angeles Patients & Caregivers Group,False,https://www.yelp.com/biz/los-angeles-patients-and-caregivers-group-west-hollywood?adjust_creative=sZ3yryoyE3Dcs3GsAvlcFA&utm_campaign=yelp_api_v3&utm_medium=api_v3_business_search&utm_source=sZ3yryoyE3Dcs3GsAvlcFA,4.5,$$,86,34.0907688800547,-118.346886039038,"(34.0907688800547, -118.346886039038)"
22,The Healing Touch,False,https://www.yelp.com/biz/the-healing-touch-encino?adjust_creative=sZ3yryoyE3Dcs3GsAvlcFA&utm_campaign=yelp_api_v3&utm_medium=api_v3_business_search&utm_source=sZ3yryoyE3Dcs3GsAvlcFA,4.5,,63,34.16492,-118.52482,"(34.16492, -118.52482)"
23,Green Door West Delivery,False,https://www.yelp.com/biz/green-door-west-delivery-los-angeles?adjust_creative=sZ3yryoyE3Dcs3GsAvlcFA&utm_campaign=yelp_api_v3&utm_medium=api_v3_business_search&utm_source=sZ3yryoyE3Dcs3GsAvlcFA,4.5,$$,38,34.03313,-118.43872,"(34.03313, -118.43872)"
24,Alternative Herbal Health Services,False,https://www.yelp.com/biz/alternative-herbal-health-services-west-hollywood?adjust_creative=sZ3yryoyE3Dcs3GsAvlcFA&utm_campaign=yelp_api_v3&utm_medium=api_v3_business_search&utm_source=sZ3yryoyE3Dcs3GsAvlcFA,4.5,$$,37,34.09056,-118.36021,"(34.09056, -118.36021)"
25,Exhalence LA,False,https://www.yelp.com/biz/exhalence-la-los-angeles?adjust_creative=sZ3yryoyE3Dcs3GsAvlcFA&utm_campaign=yelp_api_v3&utm_medium=api_v3_business_search&utm_source=sZ3yryoyE3Dcs3GsAvlcFA,4.5,$$$$,33,34.22189,-118.359563,"(34.22189, -118.359563)"
26,The Buddha Company,False,https://www.yelp.com/biz/the-buddha-company-los-angeles?adjust_creative=sZ3yryoyE3Dcs3GsAvlcFA&utm_campaign=yelp_api_v3&utm_medium=api_v3_business_search&utm_source=sZ3yryoyE3Dcs3GsAvlcFA,4.5,,26,34.0302999,-118.23084,"(34.0302999, -118.23084)"
27,Western Caregivers / California Cannabis Melrose,False,https://www.yelp.com/biz/western-caregivers-california-cannabis-melrose-los-angeles?adjust_creative=sZ3yryoyE3Dcs3GsAvlcFA&utm_campaign=yelp_api_v3&utm_medium=api_v3_business_search&utm_source=sZ3yryoyE3Dcs3GsAvlcFA,4.5,$$,31,34.08318,-118.30991,"(34.08318, -118.30991)"
28,Pineapple Express Delivery,False,https://www.yelp.com/biz/pineapple-express-delivery-manhattan-beach?adjust_creative=sZ3yryoyE3Dcs3GsAvlcFA&utm_campaign=yelp_api_v3&utm_medium=api_v3_business_search&utm_source=sZ3yryoyE3Dcs3GsAvlcFA,5.0,$$,17,33.88611,-118.40531,"(33.88611, -118.40531)"
29,Luvbrite Delivery,False,https://www.yelp.com/biz/luvbrite-delivery-santa-monica?adjust_creative=sZ3yryoyE3Dcs3GsAvlcFA&utm_campaign=yelp_api_v3&utm_medium=api_v3_business_search&utm_source=sZ3yryoyE3Dcs3GsAvlcFA,4.5,,23,34.01158,-118.49227,"(34.01158, -118.49227)"
30,Nugg,False,https://www.yelp.com/biz/nugg-los-angeles-3?adjust_creative=sZ3yryoyE3Dcs3GsAvlcFA&utm_campaign=yelp_api_v3&utm_medium=api_v3_business_search&utm_source=sZ3yryoyE3Dcs3GsAvlcFA,3.5,,99,34.029109954834,-118.283065795898,"(34.029109954834, -118.283065795898)"
31,California Alternative Caregivers,False,https://www.yelp.com/biz/california-alternative-caregivers-venice-3?adjust_creative=sZ3yryoyE3Dcs3GsAvlcFA&utm_campaign=yelp_api_v3&utm_medium=api_v3_business_search&utm_source=sZ3yryoyE3Dcs3GsAvlcFA,4.5,,31,34.0022531,-118.4691969,"(34.0022531, -118.4691969)"
32,MedMen LAX,False,https://www.yelp.com/biz/medmen-lax-los-angeles-2?adjust_creative=sZ3yryoyE3Dcs3GsAvlcFA&utm_campaign=yelp_api_v3&utm_medium=api_v3_business_search&utm_source=sZ3yryoyE3Dcs3GsAvlcFA,3.5,$$,73,33.95765,-118.39575,"(33.95765, -118.39575)"
33,Green Valley Collective,False,https://www.yelp.com/biz/green-valley-collective-los-angeles-4?adjust_creative=sZ3yryoyE3Dcs3GsAvlcFA&utm_campaign=yelp_api_v3&utm_medium=api_v3_business_search&utm_source=sZ3yryoyE3Dcs3GsAvlcFA,3.5,$$,59,34.16439,-118.36737,"(34.16439, -118.36737)"
34,MedMen Beverly Hills,False,https://www.yelp.com/biz/medmen-beverly-hills-los-angeles-5?adjust_creative=sZ3yryoyE3Dcs3GsAvlcFA&utm_campaign=yelp_api_v3&utm_medium=api_v3_business_search&utm_source=sZ3yryoyE3Dcs3GsAvlcFA,3.5,$$,57,34.0746620981703,-118.383718578289,"(34.0746620981703, -118.383718578289)"
35,Best Buds LA,False,https://www.yelp.com/biz/best-buds-la-los-angeles-4?adjust_creative=sZ3yryoyE3Dcs3GsAvlcFA&utm_campaign=yelp_api_v3&utm_medium=api_v3_business_search&utm_source=sZ3yryoyE3Dcs3GsAvlcFA,4.0,$$,27,33.9557231,-118.4168175,"(33.9557231, -118.4168175)"
36,420 Caregiver Sherman Oaks Dispensary,False,https://www.yelp.com/biz/420-caregiver-sherman-oaks-dispensary-los-angeles?adjust_creative=sZ3yryoyE3Dcs3GsAvlcFA&utm_campaign=yelp_api_v3&utm_medium=api_v3_business_search&utm_source=sZ3yryoyE3Dcs3GsAvlcFA,5.0,,17,34.14896,-118.43868,"(34.14896, -118.43868)"
37,Los Angeles Kush,False,https://www.yelp.com/biz/los-angeles-kush-los-angeles?adjust_creative=sZ3yryoyE3Dcs3GsAvlcFA&utm_campaign=yelp_api_v3&utm_medium=api_v3_business_search&utm_source=sZ3yryoyE3Dcs3GsAvlcFA,4.0,$$,28,34.06429,-118.27142,"(34.06429, -118.27142)"
38,Cannary West,False,https://www.yelp.com/biz/cannary-west-los-angeles?adjust_creative=sZ3yryoyE3Dcs3GsAvlcFA&utm_campaign=yelp_api_v3&utm_medium=api_v3_business_search&utm_source=sZ3yryoyE3Dcs3GsAvlcFA,4.5,,18,34.0373,-118.4327,"(34.0373, -118.4327)"
39,Treetop LA,False,https://www.yelp.com/biz/treetop-la-los-angeles?adjust_creative=sZ3yryoyE3Dcs3GsAvlcFA&utm_campaign=yelp_api_v3&utm_medium=api_v3_business_search&utm_source=sZ3yryoyE3Dcs3GsAvlcFA,4.0,,23,34.07543,-118.22145,"(34.07543, -118.22145)"
40,TLC Collective,False,https://www.yelp.com/biz/tlc-collective-los-angeles?adjust_creative=sZ3yryoyE3Dcs3GsAvlcFA&utm_campaign=yelp_api_v3&utm_medium=api_v3_business_search&utm_source=sZ3yryoyE3Dcs3GsAvlcFA,3.5,$$$,45,34.0177450381105,-118.198729850021,"(34.0177450381105, -118.198729850021)"
41,Apothecary420,False,https://www.yelp.com/biz/apothecary420-sherman-oaks?adjust_creative=sZ3yryoyE3Dcs3GsAvlcFA&utm_campaign=yelp_api_v3&utm_medium=api_v3_business_search&utm_source=sZ3yryoyE3Dcs3GsAvlcFA,3.5,,53,34.15312,-118.46892,"(34.15312, -118.46892)"
42,LA Wonderland Marijuana Dispensary Recreational,False,https://www.yelp.com/biz/la-wonderland-marijuana-dispensary-recreational-los-angeles-3?adjust_creative=sZ3yryoyE3Dcs3GsAvlcFA&utm_campaign=yelp_api_v3&utm_medium=api_v3_business_search&utm_source=sZ3yryoyE3Dcs3GsAvlcFA,3.0,$$,48,34.033994,-118.264534,"(34.033994, -118.264534)"
43,LA Meds 4 Less,False,https://www.yelp.com/biz/la-meds-4-less-los-angeles?adjust_creative=sZ3yryoyE3Dcs3GsAvlcFA&utm_campaign=yelp_api_v3&utm_medium=api_v3_business_search&utm_source=sZ3yryoyE3Dcs3GsAvlcFA,4.5,,13,34.0256790477334,-118.2403121549,"(34.0256790477334, -118.2403121549)"
44,The Farmacy Westwood,False,https://www.yelp.com/biz/the-farmacy-westwood-los-angeles-4?adjust_creative=sZ3yryoyE3Dcs3GsAvlcFA&utm_campaign=yelp_api_v3&utm_medium=api_v3_business_search&utm_source=sZ3yryoyE3Dcs3GsAvlcFA,4.0,,26,34.06113,-118.44765,"(34.06113, -118.44765)"
45,Green Cross of Torrance,False,https://www.yelp.com/biz/green-cross-of-torrance-torrance-2?adjust_creative=sZ3yryoyE3Dcs3GsAvlcFA&utm_campaign=yelp_api_v3&utm_medium=api_v3_business_search&utm_source=sZ3yryoyE3Dcs3GsAvlcFA,4.0,$$,40,33.8313551,-118.3085481,"(33.8313551, -118.3085481)"
46,MOTA Medicine Of The Angels,False,https://www.yelp.com/biz/mota-medicine-of-the-angels-los-angeles?adjust_creative=sZ3yryoyE3Dcs3GsAvlcFA&utm_campaign=yelp_api_v3&utm_medium=api_v3_business_search&utm_source=sZ3yryoyE3Dcs3GsAvlcFA,4.0,$$,34,34.09284,-118.28034,"(34.09284, -118.28034)"
47,The Green Earth Farmacie,False,https://www.yelp.com/biz/the-green-earth-farmacie-van-nuys?adjust_creative=sZ3yryoyE3Dcs3GsAvlcFA&utm_campaign=yelp_api_v3&utm_medium=api_v3_business_search&utm_source=sZ3yryoyE3Dcs3GsAvlcFA,5.0,$$$,9,34.2117783364303,-118.462784255872,"(34.2117783364303, -118.462784255872)"
48,The Reefinery,False,https://www.yelp.com/biz/the-reefinery-los-angeles?adjust_creative=sZ3yryoyE3Dcs3GsAvlcFA&utm_campaign=yelp_api_v3&utm_medium=api_v3_business_search&utm_source=sZ3yryoyE3Dcs3GsAvlcFA,4.5,,14,34.1796,-118.4577,"(34.1796, -118.4577)"
49,Clones On Fire,False,https://www.yelp.com/biz/clones-on-fire-los-angeles-5?adjust_creative=sZ3yryoyE3Dcs3GsAvlcFA&utm_campaign=yelp_api_v3&utm_medium=api_v3_business_search&utm_source=sZ3yryoyE3Dcs3GsAvlcFA,4.0,$,14,34.0295114,-118.2848199,"(34.0295114, -118.2848199)"
50,New Age Care Center,False,https://www.yelp.com/biz/new-age-care-center-los-angeles?adjust_creative=sZ3yryoyE3Dcs3GsAvlcFA&utm_campaign=yelp_api_v3&utm_medium=api_v3_business_search&utm_source=sZ3yryoyE3Dcs3GsAvlcFA,4.0,,15,34.01078,-118.2796,"(34.01078, -118.2796)"
51,New Amsterdam Naturals - NNCC,False,https://www.yelp.com/biz/new-amsterdam-naturals-nncc-los-angeles?adjust_creative=sZ3yryoyE3Dcs3GsAvlcFA&utm_campaign=yelp_api_v3&utm_medium=api_v3_business_search&utm_source=sZ3yryoyE3Dcs3GsAvlcFA,3.5,$$$,30,34.02887,-118.3927,"(34.02887, -118.3927)"
52,Compassion Union,False,https://www.yelp.com/biz/compassion-union-north-hollywood?adjust_creative=sZ3yryoyE3Dcs3GsAvlcFA&utm_campaign=yelp_api_v3&utm_medium=api_v3_business_search&utm_source=sZ3yryoyE3Dcs3GsAvlcFA,4.5,$$,9,34.19417,-118.38673,"(34.19417, -118.38673)"
53,The Balloon Room,False,https://www.yelp.com/biz/the-balloon-room-los-angeles?adjust_creative=sZ3yryoyE3Dcs3GsAvlcFA&utm_campaign=yelp_api_v3&utm_medium=api_v3_business_search&utm_source=sZ3yryoyE3Dcs3GsAvlcFA,4.0,,9,34.04582,-118.2606,"(34.04582, -118.2606)"
54,Limited Edition420,False,https://www.yelp.com/biz/limited-edition420-los-angeles-5?adjust_creative=sZ3yryoyE3Dcs3GsAvlcFA&utm_campaign=yelp_api_v3&utm_medium=api_v3_business_search&utm_source=sZ3yryoyE3Dcs3GsAvlcFA,5.0,,6,34.09996,-118.32698,"(34.09996, -118.32698)"
55,Kush Alley,False,https://www.yelp.com/biz/kush-alley-north-hills?adjust_creative=sZ3yryoyE3Dcs3GsAvlcFA&utm_campaign=yelp_api_v3&utm_medium=api_v3_business_search&utm_source=sZ3yryoyE3Dcs3GsAvlcFA,4.0,$$,15,34.222696104142,-118.497881285285,"(34.222696104142, -118.497881285285)"
56,LB Collective,False,https://www.yelp.com/biz/lb-collective-long-beach-2?adjust_creative=sZ3yryoyE3Dcs3GsAvlcFA&utm_campaign=yelp_api_v3&utm_medium=api_v3_business_search&utm_source=sZ3yryoyE3Dcs3GsAvlcFA,4.5,,10,33.87491,-118.17117,"(33.87491, -118.17117)"
57,LA Cannabis Co - Inglewood,False,https://www.yelp.com/biz/la-cannabis-co-inglewood-los-angeles?adjust_creative=sZ3yryoyE3Dcs3GsAvlcFA&utm_campaign=yelp_api_v3&utm_medium=api_v3_business_search&utm_source=sZ3yryoyE3Dcs3GsAvlcFA,4.5,,5,33.98545,-118.31199,"(33.98545, -118.31199)"
58,Happy Leaf Collective,False,https://www.yelp.com/biz/happy-leaf-collective-los-angeles-2?adjust_creative=sZ3yryoyE3Dcs3GsAvlcFA&utm_campaign=yelp_api_v3&utm_medium=api_v3_business_search&utm_source=sZ3yryoyE3Dcs3GsAvlcFA,3.5,,21,34.04422,-118.43246,"(34.04422, -118.43246)"
59,GREENWOLF LA,False,https://www.yelp.com/biz/greenwolf-la-los-angeles?adjust_creative=sZ3yryoyE3Dcs3GsAvlcFA&utm_campaign=yelp_api_v3&utm_medium=api_v3_business_search&utm_source=sZ3yryoyE3Dcs3GsAvlcFA,3.0,$$,26,34.1256846,-118.2639331,"(34.1256846, -118.2639331)"
60,Lit Co,False,https://www.yelp.com/biz/lit-co-los-angeles?adjust_creative=sZ3yryoyE3Dcs3GsAvlcFA&utm_campaign=yelp_api_v3&utm_medium=api_v3_business_search&utm_source=sZ3yryoyE3Dcs3GsAvlcFA,4.0,,8,34.03941,-118.2677,"(34.03941, -118.2677)"
61,Cannajuana Releaf,False,https://www.yelp.com/biz/cannajuana-releaf-glendale?adjust_creative=sZ3yryoyE3Dcs3GsAvlcFA&utm_campaign=yelp_api_v3&utm_medium=api_v3_business_search&utm_source=sZ3yryoyE3Dcs3GsAvlcFA,5.0,$$,4,34.13526,-118.24425,"(34.13526, -118.24425)"
62,Herbal Nature,False,https://www.yelp.com/biz/herbal-nature-los-angeles?adjust_creative=sZ3yryoyE3Dcs3GsAvlcFA&utm_campaign=yelp_api_v3&utm_medium=api_v3_business_search&utm_source=sZ3yryoyE3Dcs3GsAvlcFA,4.0,,8,34.0412657611647,-118.253331611495,"(34.0412657611647, -118.253331611495)"
63,Fountain Of Wellbeing,False,https://www.yelp.com/biz/fountain-of-wellbeing-north-hollywood-2?adjust_creative=sZ3yryoyE3Dcs3GsAvlcFA&utm_campaign=yelp_api_v3&utm_medium=api_v3_business_search&utm_source=sZ3yryoyE3Dcs3GsAvlcFA,5.0,,4,34.2021534,-118.3910774,"(34.2021534, -118.3910774)"
64,Shivas Dtla,False,https://www.yelp.com/biz/shivas-dtla-los-angeles?adjust_creative=sZ3yryoyE3Dcs3GsAvlcFA&utm_campaign=yelp_api_v3&utm_medium=api_v3_business_search&utm_source=sZ3yryoyE3Dcs3GsAvlcFA,4.5,$$,5,34.03679,-118.26325,"(34.03679, -118.26325)"
65,The Pottery,False,https://www.yelp.com/biz/the-pottery-los-angeles-3?adjust_creative=sZ3yryoyE3Dcs3GsAvlcFA&utm_campaign=yelp_api_v3&utm_medium=api_v3_business_search&utm_source=sZ3yryoyE3Dcs3GsAvlcFA,5.0,,6,34.03348,-118.47366,"(34.03348, -118.47366)"
66,Natural Remedies Caregivers,False,https://www.yelp.com/biz/natural-remedies-caregivers-los-angeles?adjust_creative=sZ3yryoyE3Dcs3GsAvlcFA&utm_campaign=yelp_api_v3&utm_medium=api_v3_business_search&utm_source=sZ3yryoyE3Dcs3GsAvlcFA,3.0,,14,34.087443,-118.309602,"(34.087443, -118.309602)"
67,Westside Organic Delivery,False,https://www.yelp.com/biz/westside-organic-delivery-santa-monica?adjust_creative=sZ3yryoyE3Dcs3GsAvlcFA&utm_campaign=yelp_api_v3&utm_medium=api_v3_business_search&utm_source=sZ3yryoyE3Dcs3GsAvlcFA,4.5,,8,34.0306434631348,-118.490600585938,"(34.0306434631348, -118.490600585938)"
68,LA Cannabis Co - Los Angeles,False,https://www.yelp.com/biz/la-cannabis-co-los-angeles-los-angeles-5?adjust_creative=sZ3yryoyE3Dcs3GsAvlcFA&utm_campaign=yelp_api_v3&utm_medium=api_v3_business_search&utm_source=sZ3yryoyE3Dcs3GsAvlcFA,3.5,$,7,34.0187479,-118.3193331,"(34.0187479, -118.3193331)"
69,The Green Rose,False,https://www.yelp.com/biz/the-green-rose-los-angeles?adjust_creative=sZ3yryoyE3Dcs3GsAvlcFA&utm_campaign=yelp_api_v3&utm_medium=api_v3_business_search&utm_source=sZ3yryoyE3Dcs3GsAvlcFA,2.0,$$,25,34.08371,-118.29986,"(34.08371, -118.29986)"
70,Connected Cannabis,False,https://www.yelp.com/biz/connected-cannabis-long-beach?adjust_creative=sZ3yryoyE3Dcs3GsAvlcFA&utm_campaign=yelp_api_v3&utm_medium=api_v3_business_search&utm_source=sZ3yryoyE3Dcs3GsAvlcFA,4.5,,8,33.81496,-118.16671,"(33.81496, -118.16671)"
71,Hollywood Holistic,False,https://www.yelp.com/biz/hollywood-holistic-los-angeles-7?adjust_creative=sZ3yryoyE3Dcs3GsAvlcFA&utm_campaign=yelp_api_v3&utm_medium=api_v3_business_search&utm_source=sZ3yryoyE3Dcs3GsAvlcFA,4.0,,4,34.098441,-118.307939,"(34.098441, -118.307939)"
72,Cali RX,False,https://www.yelp.com/biz/cali-rx-los-angeles?adjust_creative=sZ3yryoyE3Dcs3GsAvlcFA&utm_campaign=yelp_api_v3&utm_medium=api_v3_business_search&utm_source=sZ3yryoyE3Dcs3GsAvlcFA,4.0,$$,6,34.14877,-118.43756,"(34.14877, -118.43756)"
73,The Garden Secrets,False,https://www.yelp.com/biz/the-garden-secrets-los-angeles?adjust_creative=sZ3yryoyE3Dcs3GsAvlcFA&utm_campaign=yelp_api_v3&utm_medium=api_v3_business_search&utm_source=sZ3yryoyE3Dcs3GsAvlcFA,3.0,,10,34.08325,-118.34791,"(34.08325, -118.34791)"
74,MK Wellness,False,https://www.yelp.com/biz/mk-wellness-los-angeles?adjust_creative=sZ3yryoyE3Dcs3GsAvlcFA&utm_campaign=yelp_api_v3&utm_medium=api_v3_business_search&utm_source=sZ3yryoyE3Dcs3GsAvlcFA,3.5,$,8,34.0332832336426,-118.262367248535,"(34.0332832336426, -118.262367248535)"
75,Sun Valley Caregivers,False,https://www.yelp.com/biz/sun-valley-caregivers-sun-valley?adjust_creative=sZ3yryoyE3Dcs3GsAvlcFA&utm_campaign=yelp_api_v3&utm_medium=api_v3_business_search&utm_source=sZ3yryoyE3Dcs3GsAvlcFA,4.0,$,6,34.2380086,-118.3698842,"(34.2380086, -118.3698842)"
76,Hollyweed,False,https://www.yelp.com/biz/hollyweed-los-angeles?adjust_creative=sZ3yryoyE3Dcs3GsAvlcFA&utm_campaign=yelp_api_v3&utm_medium=api_v3_business_search&utm_source=sZ3yryoyE3Dcs3GsAvlcFA,3.0,,11,34.04442,-118.35258,"(34.04442, -118.35258)"
77,Smartweed,False,https://www.yelp.com/biz/smartweed-los-angeles?adjust_creative=sZ3yryoyE3Dcs3GsAvlcFA&utm_campaign=yelp_api_v3&utm_medium=api_v3_business_search&utm_source=sZ3yryoyE3Dcs3GsAvlcFA,3.5,,8,34.08953,-118.30872,"(34.08953, -118.30872)"
78,Arts District Cannabis Collective,False,https://www.yelp.com/biz/arts-district-cannabis-collective-los-angeles-2?adjust_creative=sZ3yryoyE3Dcs3GsAvlcFA&utm_campaign=yelp_api_v3&utm_medium=api_v3_business_search&utm_source=sZ3yryoyE3Dcs3GsAvlcFA,4.5,$,3,34.0258621153614,-118.233082213054,"(34.0258621153614, -118.233082213054)"
79,BeKind Meds,False,https://www.yelp.com/biz/bekind-meds-los-angeles-2?adjust_creative=sZ3yryoyE3Dcs3GsAvlcFA&utm_campaign=yelp_api_v3&utm_medium=api_v3_business_search&utm_source=sZ3yryoyE3Dcs3GsAvlcFA,5.0,$,2,34.09821,-118.35239,"(34.09821, -118.35239)"
80,The Pottery,False,https://www.yelp.com/biz/the-pottery-los-angeles-2?adjust_creative=sZ3yryoyE3Dcs3GsAvlcFA&utm_campaign=yelp_api_v3&utm_medium=api_v3_business_search&utm_source=sZ3yryoyE3Dcs3GsAvlcFA,4.0,$$,5,34.04502,-118.34853,"(34.04502, -118.34853)"
81,Canna Cabana 420,False,https://www.yelp.com/biz/canna-cabana-420-los-angeles-2?adjust_creative=sZ3yryoyE3Dcs3GsAvlcFA&utm_campaign=yelp_api_v3&utm_medium=api_v3_business_search&utm_source=sZ3yryoyE3Dcs3GsAvlcFA,4.0,$,4,34.03193,-118.26439,"(34.03193, -118.26439)"
82,Downtown Natural Caregivers,False,https://www.yelp.com/biz/downtown-natural-caregivers-los-angeles?adjust_creative=sZ3yryoyE3Dcs3GsAvlcFA&utm_campaign=yelp_api_v3&utm_medium=api_v3_business_search&utm_source=sZ3yryoyE3Dcs3GsAvlcFA,4.5,$,12,34.0475767,-118.2438226,"(34.0475767, -118.2438226)"
83,Kushy Delivery,False,https://www.yelp.com/biz/kushy-delivery-los-angeles-3?adjust_creative=sZ3yryoyE3Dcs3GsAvlcFA&utm_campaign=yelp_api_v3&utm_medium=api_v3_business_search&utm_source=sZ3yryoyE3Dcs3GsAvlcFA,5.0,,2,34.0029134,-118.4156558,"(34.0029134, -118.4156558)"
84,BMAC,False,https://www.yelp.com/biz/bmac-los-angeles-2?adjust_creative=sZ3yryoyE3Dcs3GsAvlcFA&utm_campaign=yelp_api_v3&utm_medium=api_v3_business_search&utm_source=sZ3yryoyE3Dcs3GsAvlcFA,3.0,$,7,34.0734871339028,-118.216198776151,"(34.0734871339028, -118.216198776151)"
85,Project Cannabis,False,https://www.yelp.com/biz/project-cannabis-los-angeles?adjust_creative=sZ3yryoyE3Dcs3GsAvlcFA&utm_campaign=yelp_api_v3&utm_medium=api_v3_business_search&utm_source=sZ3yryoyE3Dcs3GsAvlcFA,5.0,,2,34.0253736995806,-118.241701542896,"(34.0253736995806, -118.241701542896)"
86,Trippy Mellow,False,https://www.yelp.com/biz/trippy-mellow-beverly-hills?adjust_creative=sZ3yryoyE3Dcs3GsAvlcFA&utm_campaign=yelp_api_v3&utm_medium=api_v3_business_search&utm_source=sZ3yryoyE3Dcs3GsAvlcFA,4.5,$$,2,34.0617109,-118.319307839063,"(34.0617109, -118.319307839063)"
87,LaLa Land Collective,False,https://www.yelp.com/biz/lala-land-collective-los-angeles?adjust_creative=sZ3yryoyE3Dcs3GsAvlcFA&utm_campaign=yelp_api_v3&utm_medium=api_v3_business_search&utm_source=sZ3yryoyE3Dcs3GsAvlcFA,3.0,$$,8,33.936661,-118.273645089619,"(33.936661, -118.273645089619)"
88,Deals On Wheels,False,https://www.yelp.com/biz/deals-on-wheels-los-angeles-2?adjust_creative=sZ3yryoyE3Dcs3GsAvlcFA&utm_campaign=yelp_api_v3&utm_medium=api_v3_business_search&utm_source=sZ3yryoyE3Dcs3GsAvlcFA,4.0,$,3,34.1863564309187,-118.370255641624,"(34.1863564309187, -118.370255641624)"
89,Korner Town,False,https://www.yelp.com/biz/korner-town-los-angeles?adjust_creative=sZ3yryoyE3Dcs3GsAvlcFA&utm_campaign=yelp_api_v3&utm_medium=api_v3_business_search&utm_source=sZ3yryoyE3Dcs3GsAvlcFA,5.0,,1,34.0473449664072,-118.287386795321,"(34.0473449664072, -118.287386795321)"
90,Kushology,False,https://www.yelp.com/biz/kushology-los-angeles?adjust_creative=sZ3yryoyE3Dcs3GsAvlcFA&utm_campaign=yelp_api_v3&utm_medium=api_v3_business_search&utm_source=sZ3yryoyE3Dcs3GsAvlcFA,4.5,,2,33.9994224826034,-118.300244238465,"(33.9994224826034, -118.300244238465)"
91,Mai Collective,False,https://www.yelp.com/biz/mai-collective-los-angeles?adjust_creative=sZ3yryoyE3Dcs3GsAvlcFA&utm_campaign=yelp_api_v3&utm_medium=api_v3_business_search&utm_source=sZ3yryoyE3Dcs3GsAvlcFA,5.0,,1,34.0401396,-118.3082272,"(34.0401396, -118.3082272)"
92,2HIGH2DIE,False,https://www.yelp.com/biz/2high2die-long-beach-2?adjust_creative=sZ3yryoyE3Dcs3GsAvlcFA&utm_campaign=yelp_api_v3&utm_medium=api_v3_business_search&utm_source=sZ3yryoyE3Dcs3GsAvlcFA,5.0,$$$,2,33.7659797668457,-118.186027526855,"(33.7659797668457, -118.186027526855)"
93,Kaz Collective,False,https://www.yelp.com/biz/kaz-collective-los-angeles?adjust_creative=sZ3yryoyE3Dcs3GsAvlcFA&utm_campaign=yelp_api_v3&utm_medium=api_v3_business_search&utm_source=sZ3yryoyE3Dcs3GsAvlcFA,5.0,$$,1,34.05398,-118.320304,"(34.05398, -118.320304)"
94,Downtown Patient Group - DTPG,False,https://www.yelp.com/biz/downtown-patient-group-dtpg-los-angeles-3?adjust_creative=sZ3yryoyE3Dcs3GsAvlcFA&utm_campaign=yelp_api_v3&utm_medium=api_v3_business_search&utm_source=sZ3yryoyE3Dcs3GsAvlcFA,3.0,,5,34.02818,-118.23193,"(34.02818, -118.23193)"
95,Health Stop,False,https://www.yelp.com/biz/health-stop-los-angeles?adjust_creative=sZ3yryoyE3Dcs3GsAvlcFA&utm_campaign=yelp_api_v3&utm_medium=api_v3_business_search&utm_source=sZ3yryoyE3Dcs3GsAvlcFA,5.0,$$,1,34.0767857007629,-118.287211954594,"(34.0767857007629, -118.287211954594)"
96,Enjoyable CBD,False,https://www.yelp.com/biz/enjoyable-cbd-los-angeles?adjust_creative=sZ3yryoyE3Dcs3GsAvlcFA&utm_campaign=yelp_api_v3&utm_medium=api_v3_business_search&utm_source=sZ3yryoyE3Dcs3GsAvlcFA,5.0,,1,34.09934,-118.32718,"(34.09934, -118.32718)"
97,Cookies Melrose,False,https://www.yelp.com/biz/cookies-melrose-los-angeles-2?adjust_creative=sZ3yryoyE3Dcs3GsAvlcFA&utm_campaign=yelp_api_v3&utm_medium=api_v3_business_search&utm_source=sZ3yryoyE3Dcs3GsAvlcFA,2.0,,9,34.08336,-118.37237,"(34.08336, -118.37237)"
98,Kushland,False,https://www.yelp.com/biz/kushland-los-angeles-2?adjust_creative=sZ3yryoyE3Dcs3GsAvlcFA&utm_campaign=yelp_api_v3&utm_medium=api_v3_business_search&utm_source=sZ3yryoyE3Dcs3GsAvlcFA,3.0,$$,5,33.961618,-118.278568,"(33.961618, -118.278568)"
99,Semilla_HRC,False,https://www.yelp.com/biz/semilla-hrc-los-angeles-3?adjust_creative=sZ3yryoyE3Dcs3GsAvlcFA&utm_campaign=yelp_api_v3&utm_medium=api_v3_business_search&utm_source=sZ3yryoyE3Dcs3GsAvlcFA,5.0,,6,34.2093599,-118.36264,"(34.2093599, -118.36264)"
100,Original Green Bear,False,https://www.yelp.com/biz/original-green-bear-los-angeles-2?adjust_creative=sZ3yryoyE3Dcs3GsAvlcFA&utm_campaign=yelp_api_v3&utm_medium=api_v3_business_search&utm_source=sZ3yryoyE3Dcs3GsAvlcFA,5.0,,1,34.03122,-118.25006,"(34.03122, -118.25006)"
101,MedEX,False,https://www.yelp.com/biz/medex-los-angeles-2?adjust_creative=sZ3yryoyE3Dcs3GsAvlcFA&utm_campaign=yelp_api_v3&utm_medium=api_v3_business_search&utm_source=sZ3yryoyE3Dcs3GsAvlcFA,5.0,,1,34.0207762,-118.22059,"(34.0207762, -118.22059)"
102,Cali Releaf Church of Mien Tao,False,https://www.yelp.com/biz/cali-releaf-church-of-mien-tao-alhambra?adjust_creative=sZ3yryoyE3Dcs3GsAvlcFA&utm_campaign=yelp_api_v3&utm_medium=api_v3_business_search&utm_source=sZ3yryoyE3Dcs3GsAvlcFA,4.0,,17,34.09013,-118.12377,"(34.09013, -118.12377)"
103,420 Health Care Deliveries,False,https://www.yelp.com/biz/420-health-care-deliveries-los-angeles?adjust_creative=sZ3yryoyE3Dcs3GsAvlcFA&utm_campaign=yelp_api_v3&utm_medium=api_v3_business_search&utm_source=sZ3yryoyE3Dcs3GsAvlcFA,5.0,,1,34.02804,-118.21383,"(34.02804, -118.21383)"
104,Gas Stop,False,https://www.yelp.com/biz/gas-stop-los-angeles?adjust_creative=sZ3yryoyE3Dcs3GsAvlcFA&utm_campaign=yelp_api_v3&utm_medium=api_v3_business_search&utm_source=sZ3yryoyE3Dcs3GsAvlcFA,5.0,,1,33.94402,-118.28226,"(33.94402, -118.28226)"
105,ThirdEye Wellness,False,https://www.yelp.com/biz/thirdeye-wellness-los-angeles?adjust_creative=sZ3yryoyE3Dcs3GsAvlcFA&utm_campaign=yelp_api_v3&utm_medium=api_v3_business_search&utm_source=sZ3yryoyE3Dcs3GsAvlcFA,4.0,$$,9,33.99256,-118.4233,"(33.99256, -118.4233)"
106,Metro Green Meds,False,https://www.yelp.com/biz/metro-green-meds-los-angeles?adjust_creative=sZ3yryoyE3Dcs3GsAvlcFA&utm_campaign=yelp_api_v3&utm_medium=api_v3_business_search&utm_source=sZ3yryoyE3Dcs3GsAvlcFA,3.0,$,4,34.032309,-118.261788,"(34.032309, -118.261788)"
107,Leaf and Lion,False,https://www.yelp.com/biz/leaf-and-lion-long-beach?adjust_creative=sZ3yryoyE3Dcs3GsAvlcFA&utm_campaign=yelp_api_v3&utm_medium=api_v3_business_search&utm_source=sZ3yryoyE3Dcs3GsAvlcFA,3.0,,5,33.88154,-118.16254,"(33.88154, -118.16254)"
108,Best of Buddha Whittier,False,https://www.yelp.com/biz/best-of-buddha-whittier-whittier?adjust_creative=sZ3yryoyE3Dcs3GsAvlcFA&utm_campaign=yelp_api_v3&utm_medium=api_v3_business_search&utm_source=sZ3yryoyE3Dcs3GsAvlcFA,3.5,,5,33.97241,-118.07091,"(33.97241, -118.07091)"
109,Metro Bloomin,False,https://www.yelp.com/biz/metro-bloomin-los-angeles?adjust_creative=sZ3yryoyE3Dcs3GsAvlcFA&utm_campaign=yelp_api_v3&utm_medium=api_v3_business_search&utm_source=sZ3yryoyE3Dcs3GsAvlcFA,3.0,,2,34.04582,-118.2606,"(34.04582, -118.2606)"
110,Mind Kontrol Delivery Service,False,https://www.yelp.com/biz/mind-kontrol-delivery-service-downtown-los-angeles?adjust_creative=sZ3yryoyE3Dcs3GsAvlcFA&utm_campaign=yelp_api_v3&utm_medium=api_v3_business_search&utm_source=sZ3yryoyE3Dcs3GsAvlcFA,5.0,,2,34.0426712036133,-118.250885009766,"(34.0426712036133, -118.250885009766)"
111,DTLA Garden,False,https://www.yelp.com/biz/dtla-garden-los-angeles-2?adjust_creative=sZ3yryoyE3Dcs3GsAvlcFA&utm_campaign=yelp_api_v3&utm_medium=api_v3_business_search&utm_source=sZ3yryoyE3Dcs3GsAvlcFA,3.0,,2,34.0358536,-118.2548773,"(34.0358536, -118.2548773)"
112,Vapeur Terp,False,https://www.yelp.com/biz/vapeur-terp-sylmar?adjust_creative=sZ3yryoyE3Dcs3GsAvlcFA&utm_campaign=yelp_api_v3&utm_medium=api_v3_business_search&utm_source=sZ3yryoyE3Dcs3GsAvlcFA,5.0,,1,34.2967177,-118.4132981,"(34.2967177, -118.4132981)"
113,OG Bros,False,https://www.yelp.com/biz/og-bros-los-angeles?adjust_creative=sZ3yryoyE3Dcs3GsAvlcFA&utm_campaign=yelp_api_v3&utm_medium=api_v3_business_search&utm_source=sZ3yryoyE3Dcs3GsAvlcFA,3.0,$$,4,34.227342,-118.433116,"(34.227342, -118.433116)"
114,The Cannabis Method,False,https://www.yelp.com/biz/the-cannabis-method-los-angeles-4?adjust_creative=sZ3yryoyE3Dcs3GsAvlcFA&utm_campaign=yelp_api_v3&utm_medium=api_v3_business_search&utm_source=sZ3yryoyE3Dcs3GsAvlcFA,3.0,$$,2,34.03313,-118.43872,"(34.03313, -118.43872)"
115,Lords Room,False,https://www.yelp.com/biz/lords-room-los-angeles?adjust_creative=sZ3yryoyE3Dcs3GsAvlcFA&utm_campaign=yelp_api_v3&utm_medium=api_v3_business_search&utm_source=sZ3yryoyE3Dcs3GsAvlcFA,2.5,,3,34.0506116857525,-118.361776177311,"(34.0506116857525, -118.361776177311)"
116,Mai Fire Buds1 420 MMJ Cannabis Marijuana Delivery,False,https://www.yelp.com/biz/mai-fire-buds1-420-mmj-cannabis-marijuana-delivery-woodland-hill?adjust_creative=sZ3yryoyE3Dcs3GsAvlcFA&utm_campaign=yelp_api_v3&utm_medium=api_v3_business_search&utm_source=sZ3yryoyE3Dcs3GsAvlcFA,5.0,,1,34.1848754882812,-118.601669311523,"(34.1848754882812, -118.601669311523)"
117,24 7 Marijuana Delivery,False,https://www.yelp.com/biz/24-7-marijuana-delivery-los-angeles-2?adjust_creative=sZ3yryoyE3Dcs3GsAvlcFA&utm_campaign=yelp_api_v3&utm_medium=api_v3_business_search&utm_source=sZ3yryoyE3Dcs3GsAvlcFA,1.0,,10,34.0616751,-118.2872401,"(34.0616751, -118.2872401)"
118,Nothing But Fire 24/7,False,https://www.yelp.com/biz/nothing-but-fire-24-7-los-angeles-3?adjust_creative=sZ3yryoyE3Dcs3GsAvlcFA&utm_campaign=yelp_api_v3&utm_medium=api_v3_business_search&utm_source=sZ3yryoyE3Dcs3GsAvlcFA,2.5,$$,3,34.0261797,-118.2766156,"(34.0261797, -118.2766156)"
119,831 Organiks,False,https://www.yelp.com/biz/831-organiks-los-angeles?adjust_creative=sZ3yryoyE3Dcs3GsAvlcFA&utm_campaign=yelp_api_v3&utm_medium=api_v3_business_search&utm_source=sZ3yryoyE3Dcs3GsAvlcFA,2.5,,3,34.0489812,-118.2589574,"(34.0489812, -118.2589574)"
120,Long Beach Wellness Center,False,https://www.yelp.com/biz/long-beach-wellness-center-long-beach-2?adjust_creative=sZ3yryoyE3Dcs3GsAvlcFA&utm_campaign=yelp_api_v3&utm_medium=api_v3_business_search&utm_source=sZ3yryoyE3Dcs3GsAvlcFA,4.0,,16,33.8101,-118.11693,"(33.8101, -118.11693)"
121,SFV Delivers,False,https://www.yelp.com/biz/sfv-delivers-chatsworth?adjust_creative=sZ3yryoyE3Dcs3GsAvlcFA&utm_campaign=yelp_api_v3&utm_medium=api_v3_business_search&utm_source=sZ3yryoyE3Dcs3GsAvlcFA,5.0,,1,34.25344,-118.60081,"(34.25344, -118.60081)"
122,The Green Dot,False,https://www.yelp.com/biz/the-green-dot-marina-del-rey?adjust_creative=sZ3yryoyE3Dcs3GsAvlcFA&utm_campaign=yelp_api_v3&utm_medium=api_v3_business_search&utm_source=sZ3yryoyE3Dcs3GsAvlcFA,3.0,$$,26,33.98703,-118.4441,"(33.98703, -118.4441)"
123,UNIVERSITY 20 CAP,False,https://www.yelp.com/biz/university-20-cap-los-angeles?adjust_creative=sZ3yryoyE3Dcs3GsAvlcFA&utm_campaign=yelp_api_v3&utm_medium=api_v3_business_search&utm_source=sZ3yryoyE3Dcs3GsAvlcFA,2.5,,3,34.02027,-118.27578,"(34.02027, -118.27578)"
124,The House Of Ounces,False,https://www.yelp.com/biz/the-house-of-ounces-los-angeles?adjust_creative=sZ3yryoyE3Dcs3GsAvlcFA&utm_campaign=yelp_api_v3&utm_medium=api_v3_business_search&utm_source=sZ3yryoyE3Dcs3GsAvlcFA,1.5,,6,34.03864,-118.26136,"(34.03864, -118.26136)"
125,Nugmen Cannabis Delivery,False,https://www.yelp.com/biz/nugmen-cannabis-delivery-san-fernando?adjust_creative=sZ3yryoyE3Dcs3GsAvlcFA&utm_campaign=yelp_api_v3&utm_medium=api_v3_business_search&utm_source=sZ3yryoyE3Dcs3GsAvlcFA,5.0,,3,34.2839508056641,-118.438591003418,"(34.2839508056641, -118.438591003418)"
126,The Circle,False,https://www.yelp.com/biz/the-circle-long-beach-2?adjust_creative=sZ3yryoyE3Dcs3GsAvlcFA&utm_campaign=yelp_api_v3&utm_medium=api_v3_business_search&utm_source=sZ3yryoyE3Dcs3GsAvlcFA,4.0,$$,13,33.78905,-118.13945,"(33.78905, -118.13945)"
127,420 Frat House,False,https://www.yelp.com/biz/420-frat-house-los-angeles?adjust_creative=sZ3yryoyE3Dcs3GsAvlcFA&utm_campaign=yelp_api_v3&utm_medium=api_v3_business_search&utm_source=sZ3yryoyE3Dcs3GsAvlcFA,2.0,,2,34.01083,-118.27141,"(34.01083, -118.27141)"
128,Cookies Los Angeles,False,https://www.yelp.com/biz/cookies-los-angeles-maywood?adjust_creative=sZ3yryoyE3Dcs3GsAvlcFA&utm_campaign=yelp_api_v3&utm_medium=api_v3_business_search&utm_source=sZ3yryoyE3Dcs3GsAvlcFA,3.0,$$$,12,33.9895796636458,-118.203753216315,"(33.9895796636458, -118.203753216315)"
129,West Coast Clones,False,https://www.yelp.com/biz/west-coast-clones-anaheim-2?adjust_creative=sZ3yryoyE3Dcs3GsAvlcFA&utm_campaign=yelp_api_v3&utm_medium=api_v3_business_search&utm_source=sZ3yryoyE3Dcs3GsAvlcFA,4.0,,13,33.8439445495605,-117.941757202148,"(33.8439445495605, -117.941757202148)"
130,From The Earth,False,https://www.yelp.com/biz/from-the-earth-port-hueneme?adjust_creative=sZ3yryoyE3Dcs3GsAvlcFA&utm_campaign=yelp_api_v3&utm_medium=api_v3_business_search&utm_source=sZ3yryoyE3Dcs3GsAvlcFA,3.0,$$,12,34.1782,-119.19631,"(34.1782, -119.19631)"
131,Stoney Cannabis Delivery,False,https://www.yelp.com/biz/stoney-cannabis-delivery-santa-ana?adjust_creative=sZ3yryoyE3Dcs3GsAvlcFA&utm_campaign=yelp_api_v3&utm_medium=api_v3_business_search&utm_source=sZ3yryoyE3Dcs3GsAvlcFA,3.5,$,45,33.76342,-117.79442,"(33.76342, -117.79442)"
132,420 Nature Aid,False,https://www.yelp.com/biz/420-nature-aid-los-angeles?adjust_creative=sZ3yryoyE3Dcs3GsAvlcFA&utm_campaign=yelp_api_v3&utm_medium=api_v3_business_search&utm_source=sZ3yryoyE3Dcs3GsAvlcFA,3.0,,2,33.9700012207031,-118.376281738281,"(33.9700012207031, -118.376281738281)"
133,Harvest Moon Dispensables,False,https://www.yelp.com/biz/harvest-moon-dispensables-west-los-angeles-2?adjust_creative=sZ3yryoyE3Dcs3GsAvlcFA&utm_campaign=yelp_api_v3&utm_medium=api_v3_business_search&utm_source=sZ3yryoyE3Dcs3GsAvlcFA,5.0,$,1,34.0464706420898,-118.433952331543,"(34.0464706420898, -118.433952331543)"
134,CHC 7G 8th,False,https://www.yelp.com/biz/chc-7g-8th-vernon?adjust_creative=sZ3yryoyE3Dcs3GsAvlcFA&utm_campaign=yelp_api_v3&utm_medium=api_v3_business_search&utm_source=sZ3yryoyE3Dcs3GsAvlcFA,5.0,$$,1,34.01766,-118.24386,"(34.01766, -118.24386)"
135,LA Discount Super Store,False,https://www.yelp.com/biz/la-discount-super-store-los-angeles?adjust_creative=sZ3yryoyE3Dcs3GsAvlcFA&utm_campaign=yelp_api_v3&utm_medium=api_v3_business_search&utm_source=sZ3yryoyE3Dcs3GsAvlcFA,2.0,$$,2,34.0345297,-118.2164091,"(34.0345297, -118.2164091)"
136,Jack Canna,False,https://www.yelp.com/biz/jack-canna-los-angeles?adjust_creative=sZ3yryoyE3Dcs3GsAvlcFA&utm_campaign=yelp_api_v3&utm_medium=api_v3_business_search&utm_source=sZ3yryoyE3Dcs3GsAvlcFA,1.0,$$$$,1,34.0242671,-118.2391039,"(34.0242671, -118.2391039)"
137,420 Ganja Delivery,False,https://www.yelp.com/biz/420-ganja-delivery-los-angeles?adjust_creative=sZ3yryoyE3Dcs3GsAvlcFA&utm_campaign=yelp_api_v3&utm_medium=api_v3_business_search&utm_source=sZ3yryoyE3Dcs3GsAvlcFA,5.0,,1,34.0235135,-118.2096651,"(34.0235135, -118.2096651)"
138,Green Mile,False,https://www.yelp.com/biz/green-mile-burbank-2?adjust_creative=sZ3yryoyE3Dcs3GsAvlcFA&utm_campaign=yelp_api_v3&utm_medium=api_v3_business_search&utm_source=sZ3yryoyE3Dcs3GsAvlcFA,5.0,,1,34.156063079834,-118.343688964844,"(34.156063079834, -118.343688964844)"
139,420Weedkeef,False,https://www.yelp.com/biz/420weedkeef-santa-monica-4?adjust_creative=sZ3yryoyE3Dcs3GsAvlcFA&utm_campaign=yelp_api_v3&utm_medium=api_v3_business_search&utm_source=sZ3yryoyE3Dcs3GsAvlcFA,5.0,,1,34.0161098854751,-118.495390936732,"(34.0161098854751, -118.495390936732)"
140,UBER WEED,False,https://www.yelp.com/biz/uber-weed-north-hollywood-7?adjust_creative=sZ3yryoyE3Dcs3GsAvlcFA&utm_campaign=yelp_api_v3&utm_medium=api_v3_business_search&utm_source=sZ3yryoyE3Dcs3GsAvlcFA,5.0,,2,34.18638,-118.3847,"(34.18638, -118.3847)"
141,Blowing Trees,False,https://www.yelp.com/biz/blowing-trees-los-angeles?adjust_creative=sZ3yryoyE3Dcs3GsAvlcFA&utm_campaign=yelp_api_v3&utm_medium=api_v3_business_search&utm_source=sZ3yryoyE3Dcs3GsAvlcFA,1.0,$,1,34.0286,-118.20085,"(34.0286, -118.20085)"
142,Downtown Buyers Club,False,https://www.yelp.com/biz/downtown-buyers-club-los-angeles?adjust_creative=sZ3yryoyE3Dcs3GsAvlcFA&utm_campaign=yelp_api_v3&utm_medium=api_v3_business_search&utm_source=sZ3yryoyE3Dcs3GsAvlcFA,1.0,$$,1,34.023582,-118.2446988,"(34.023582, -118.2446988)"
143,Nursery's Best MMJ Delivery,False,https://www.yelp.com/biz/nurserys-best-mmj-delivery-bell?adjust_creative=sZ3yryoyE3Dcs3GsAvlcFA&utm_campaign=yelp_api_v3&utm_medium=api_v3_business_search&utm_source=sZ3yryoyE3Dcs3GsAvlcFA,3.5,,5,33.96159,-118.16139,"(33.96159, -118.16139)"
144,Greenberry Collective,False,https://www.yelp.com/biz/greenberry-collective-los-angeles-5?adjust_creative=sZ3yryoyE3Dcs3GsAvlcFA&utm_campaign=yelp_api_v3&utm_medium=api_v3_business_search&utm_source=sZ3yryoyE3Dcs3GsAvlcFA,5.0,,1,34.198571,-118.491772,"(34.198571, -118.491772)"
145,HerbanMed Delivery,False,https://www.yelp.com/biz/herbanmed-delivery-orange-county-2?adjust_creative=sZ3yryoyE3Dcs3GsAvlcFA&utm_campaign=yelp_api_v3&utm_medium=api_v3_business_search&utm_source=sZ3yryoyE3Dcs3GsAvlcFA,5.0,$$,4,33.8013191223145,-117.836860656738,"(33.8013191223145, -117.836860656738)"
146,High Flyers CA,False,https://www.yelp.com/biz/high-flyers-ca-long-beach?adjust_creative=sZ3yryoyE3Dcs3GsAvlcFA&utm_campaign=yelp_api_v3&utm_medium=api_v3_business_search&utm_source=sZ3yryoyE3Dcs3GsAvlcFA,5.0,,2,33.85415,-118.1916,"(33.85415, -118.1916)"
147,Five Star Collective,False,https://www.yelp.com/biz/five-star-collective-los-angeles?adjust_creative=sZ3yryoyE3Dcs3GsAvlcFA&utm_campaign=yelp_api_v3&utm_medium=api_v3_business_search&utm_source=sZ3yryoyE3Dcs3GsAvlcFA,3.0,,2,33.9455849,-118.316414,"(33.9455849, -118.316414)"
148,NoHiCBD,False,https://www.yelp.com/biz/nohicbd-santa-clarita?adjust_creative=sZ3yryoyE3Dcs3GsAvlcFA&utm_campaign=yelp_api_v3&utm_medium=api_v3_business_search&utm_source=sZ3yryoyE3Dcs3GsAvlcFA,5.0,,2,34.4217414855957,-118.561622619629,"(34.4217414855957, -118.561622619629)"
149,Vybes,False,https://www.yelp.com/biz/vybes-west-hollywood?adjust_creative=sZ3yryoyE3Dcs3GsAvlcFA&utm_campaign=yelp_api_v3&utm_medium=api_v3_business_search&utm_source=sZ3yryoyE3Dcs3GsAvlcFA,3.0,,1,34.08879,-118.37803,"(34.08879, -118.37803)"
150,High Maintenance LA,False,https://www.yelp.com/biz/high-maintenance-la-los-angeles-2?adjust_creative=sZ3yryoyE3Dcs3GsAvlcFA&utm_campaign=yelp_api_v3&utm_medium=api_v3_business_search&utm_source=sZ3yryoyE3Dcs3GsAvlcFA,1.0,$,1,34.03732,-118.26116,"(34.03732, -118.26116)"
151,Marijuana Strains Store,False,https://www.yelp.com/biz/marijuana-strains-store-los-angeles?adjust_creative=sZ3yryoyE3Dcs3GsAvlcFA&utm_campaign=yelp_api_v3&utm_medium=api_v3_business_search&utm_source=sZ3yryoyE3Dcs3GsAvlcFA,1.0,,1,34.0554599,-118.27789,"(34.0554599, -118.27789)"
152,EZ Custom Packaging,False,https://www.yelp.com/biz/ez-custom-packaging-los-angeles-2?adjust_creative=sZ3yryoyE3Dcs3GsAvlcFA&utm_campaign=yelp_api_v3&utm_medium=api_v3_business_search&utm_source=sZ3yryoyE3Dcs3GsAvlcFA,1.0,,1,34.0469234,-118.2441952,"(34.0469234, -118.2441952)"
153,Giving Greens Delivery,False,https://www.yelp.com/biz/giving-greens-delivery-los-angeles-2?adjust_creative=sZ3yryoyE3Dcs3GsAvlcFA&utm_campaign=yelp_api_v3&utm_medium=api_v3_business_search&utm_source=sZ3yryoyE3Dcs3GsAvlcFA,1.0,$$,1,33.9740867614746,-118.24983215332,"(33.9740867614746, -118.24983215332)"
154,Purecannastore,False,https://www.yelp.com/biz/purecannastore-los-angeles?adjust_creative=sZ3yryoyE3Dcs3GsAvlcFA&utm_campaign=yelp_api_v3&utm_medium=api_v3_business_search&utm_source=sZ3yryoyE3Dcs3GsAvlcFA,1.0,,1,34.03367,-118.18426,"(34.03367, -118.18426)"
155,Spectwonders,False,https://www.yelp.com/biz/spectwonders-compton-2?adjust_creative=sZ3yryoyE3Dcs3GsAvlcFA&utm_campaign=yelp_api_v3&utm_medium=api_v3_business_search&utm_source=sZ3yryoyE3Dcs3GsAvlcFA,1.0,,1,33.90323,-118.202912,"(33.90323, -118.202912)"
156,Venice Medical Center,False,https://www.yelp.com/biz/venice-medical-center-culver-city-3?adjust_creative=sZ3yryoyE3Dcs3GsAvlcFA&utm_campaign=yelp_api_v3&utm_medium=api_v3_business_search&utm_source=sZ3yryoyE3Dcs3GsAvlcFA,4.0,,2,34.02425,-118.39645,"(34.02425, -118.39645)"
157,Pasadena 419,False,https://www.yelp.com/biz/pasadena-419-pasadena-4?adjust_creative=sZ3yryoyE3Dcs3GsAvlcFA&utm_campaign=yelp_api_v3&utm_medium=api_v3_business_search&utm_source=sZ3yryoyE3Dcs3GsAvlcFA,2.5,$$,6,34.14924,-118.1202686,"(34.14924, -118.1202686)"
158,Venice Kush,False,https://www.yelp.com/biz/venice-kush-huntington-park?adjust_creative=sZ3yryoyE3Dcs3GsAvlcFA&utm_campaign=yelp_api_v3&utm_medium=api_v3_business_search&utm_source=sZ3yryoyE3Dcs3GsAvlcFA,5.0,$,1,33.97935,-118.25005,"(33.97935, -118.25005)"
159,The Blue Diamond Center,False,https://www.yelp.com/biz/the-blue-diamond-center-burbank?adjust_creative=sZ3yryoyE3Dcs3GsAvlcFA&utm_campaign=yelp_api_v3&utm_medium=api_v3_business_search&utm_source=sZ3yryoyE3Dcs3GsAvlcFA,1.0,,1,34.15516,-118.34302,"(34.15516, -118.34302)"
160,101 CBD,False,https://www.yelp.com/biz/101-cbd-ojai?adjust_creative=sZ3yryoyE3Dcs3GsAvlcFA&utm_campaign=yelp_api_v3&utm_medium=api_v3_business_search&utm_source=sZ3yryoyE3Dcs3GsAvlcFA,5.0,,1,34.42295,-119.28902,"(34.42295, -119.28902)"
161,Bud Cellar,False,https://www.yelp.com/biz/bud-cellar-north-hollywood?adjust_creative=sZ3yryoyE3Dcs3GsAvlcFA&utm_campaign=yelp_api_v3&utm_medium=api_v3_business_search&utm_source=sZ3yryoyE3Dcs3GsAvlcFA,1.0,,1,34.1650902,-118.3756637,"(34.1650902, -118.3756637)"
